trail_name,length,difficulty,trail_link,longitude,latitude,city,popularity,rating,local_club,local_club_site,land_manager,land_manager_site,tot_climb,tot_descent,ave_grade,max_grade,max_elevation,min_elevation,dog_policy,e_bike_policy
Hiline Trail,3.1,VERY DIFFICULT,https://www.mtbproject.com/trail/593534/hiline-trail,34.804602,-111.771244,Village of Oak Creek (Big Park),1,4.7,Verde Valley Cyclists Coalition,https://www.mtbproject.com/club/4920204/verde-valley-cyclists-coalition,USFS - Coconino National Forest Office,http://www.fs.usda.gov/coconino,326,695,6,35,4646,4086,Unknown,Unknown
Slim Shady Trail,2.6,INTERMEDIATE/DIFFICULT,https://www.mtbproject.com/trail/593708/slim-shady-trail,34.790166,-111.765576,Village of Oak Creek (Big Park),0.99895288,4.4,Verde Valley Cyclists Coalition,https://www.mtbproject.com/club/4920204/verde-valley-cyclists-coalition,USFS - Coconino National Forest Office,http://www.fs.usda.gov/coconino,265,264,4,11,4464,4202,Unknown,Unknown
Mescal,2.4,INTERMEDIATE/DIFFICULT,https://www.mtbproject.com/trail/4960011/mescal,34.906801,-111.824568,West Sedona,0.997905759,4.6,Verde Valley Cyclists Coalition,https://www.mtbproject.com/club/4920204/verde-valley-cyclists-coalition,USFS - Coconino National Forest Office,http://www.fs.usda.gov/coconino,206,166,3,11,4710,4520,Unknown,Unknown
Chuckwagon,5.4,INTERMEDIATE,https://www.mtbproject.com/trail/4960774/chuckwagon,34.906632,-111.823948,West Sedona,0.996858639,4.5,Verde Valley Cyclists Coalition,https://www.mtbproject.com/club/4920204/verde-valley-cyclists-coalition,USFS - Coconino National Forest Office,http://www.fs.usda.gov/coconino,559,489,4,13,4679,4499,Unknown,Unknown
Tortolita Preserve Loop,9.7,INTERMEDIATE,https://www.mtbproject.com/trail/6390787/tortolita-preserve-loop,32.439082,-111.098523,Tortolita,0.995811518,4.2,Sonoran Desert Mountain Bicyclists,https://www.mtbproject.com/club/112648/sonoran-desert-mountain-bicyclists,"Pima County - Natural Resources, Parks and Recreation",http://webcms.pima.gov/government/natural_resources_parks_and_recreation/,520,520,2,4,2804,2326,Unknown,Unknown
Lone Cactus Loop,6.4,INTERMEDIATE,https://www.mtbproject.com/trail/6437294/lone-cactus-loop,32.161981,-110.789655,Tanque Verde,0.994764398,4.3,,,,,277,280,2,9,2856,2793,Unknown,Unknown
Apache Wash Loop,6.2,EASY/INTERMEDIATE,https://www.mtbproject.com/trail/7004148/apache-wash-loop,33.771267,-112.048779,Cave Creek,0.993717277,4.1,,,,,159,176,1,4,1815,1704,Leashed,Unknown
Desperado Loop,3.6,EASY/INTERMEDIATE,https://www.mtbproject.com/trail/7017541/desperado-loop,32.27825,-111.082731,Flowing Wells,0.992670157,4.7,Sonoran Desert Mountain Bicyclists,https://www.mtbproject.com/club/112648/sonoran-desert-mountain-bicyclists,"Pima County - Natural Resources, Parks and Recreation",http://webcms.pima.gov/government/natural_resources_parks_and_recreation/,231,175,2,7,2561,2405,Unknown,Not Allowed
North Loop,6.8,EASY/INTERMEDIATE,https://www.mtbproject.com/trail/7036398/north-loop,32.022649,-110.569918,Vail,0.991623037,4.6,,,,,466,467,3,9,3921,3712,No Dogs,Unknown
Bug Springs,4.6,DIFFICULT,https://www.mtbproject.com/trail/299773/bug-springs,32.374283,-110.690391,Tanque Verde,0.990575916,4.4,Tucson Off Road Cyclists & Activists (TORCA),https://www.mtbproject.com/club/7000193/tucson-off-road-cyclists-activists-torca,USFS - Coronado National Forest Office,http://www.fs.usda.gov/coronado,599,1604,9,38,6288,4900,Unknown,Unknown
Hog Heaven,1.1,DIFFICULT,https://www.mtbproject.com/trail/7000537/hog-heaven,34.837921,-111.75732,Sedona,0.989528796,4.5,Verde Valley Cyclists Coalition,https://www.mtbproject.com/club/4920204/verde-valley-cyclists-coalition,USFS - Coconino National Forest Office,http://www.fs.usda.gov/coconino,116,233,6,27,4565,4366,Unknown,Unknown
Llama Trail,2.9,INTERMEDIATE/DIFFICULT,https://www.mtbproject.com/trail/4923530/llama-trail,34.80534,-111.761794,Village of Oak Creek (Big Park),0.988481675,4.2,Verde Valley Cyclists Coalition,https://www.mtbproject.com/club/4920204/verde-valley-cyclists-coalition,USFS - Coconino National Forest Office,http://www.fs.usda.gov/coconino,206,268,3,13,4448,4318,Unknown,Unknown
Sport Loop,3,INTERMEDIATE,https://www.mtbproject.com/trail/5121292/sport-loop,33.669202,-111.702101,Fountain Hills,0.987434555,4.5,,,,,198,200,3,5,1780,1620,Unknown,Allowed
Templeton Trail,3.4,INTERMEDIATE/DIFFICULT,https://www.mtbproject.com/trail/594263/templeton-trail,34.808976,-111.764812,Village of Oak Creek (Big Park),0.986387435,4,Verde Valley Cyclists Coalition,https://www.mtbproject.com/club/4920204/verde-valley-cyclists-coalition,USFS - Coconino National Forest Office,http://www.fs.usda.gov/coconino,84,400,3,21,4296,3976,Unknown,Unknown
Adobe Jack,2,INTERMEDIATE,https://www.mtbproject.com/trail/4920585/adobe-jack,34.885891,-111.782006,Sedona,0.985340314,4,Verde Valley Cyclists Coalition,https://www.mtbproject.com/club/4920204/verde-valley-cyclists-coalition,USFS - Coconino National Forest Office,http://www.fs.usda.gov/coconino,109,240,3,10,4494,4341,Unknown,Unknown
Bunny Loop,4.5,EASY,https://www.mtbproject.com/trail/7001452/bunny-loop,32.119256,-110.78917,Vail,0.984293194,4,,,,,77,82,1,3,2920,2871,Unknown,Unknown
Cockscomb,3.6,INTERMEDIATE,https://www.mtbproject.com/trail/1015685/cockscomb,34.885633,-111.86996,West Sedona,0.983246073,4.4,Verde Valley Cyclists Coalition,https://www.mtbproject.com/club/4920204/verde-valley-cyclists-coalition,USFS - Coconino National Forest Office,http://www.fs.usda.gov/coconino,296,280,3,12,4648,4511,Unknown,Not Allowed
Hangover Trail,3.2,VERY DIFFICULT,https://www.mtbproject.com/trail/4941561/hangover-trail,34.87766,-111.716833,Sedona,0.982198953,4.9,,,,,244,753,6,36,5224,4673,Unknown,Unknown
Broken Arrow Trail,1.5,DIFFICULT,https://www.mtbproject.com/trail/4915610/broken-arrow-trail,34.84536,-111.756602,Sedona,0.981151832,4.4,Verde Valley Cyclists Coalition,https://www.mtbproject.com/club/4920204/verde-valley-cyclists-coalition,USFS - Coconino National Forest Office,http://www.fs.usda.gov/coconino,350,64,5,20,4618,4282,Unknown,Unknown
Aerie,2.9,INTERMEDIATE,https://www.mtbproject.com/trail/1015551/aerie,34.907634,-111.849101,West Sedona,0.980104712,4.5,Verde Valley Cyclists Coalition,https://www.mtbproject.com/club/4920204/verde-valley-cyclists-coalition,USFS - Coconino National Forest Office,http://www.fs.usda.gov/coconino,262,223,3,12,4727,4524,Unknown,Unknown
National Trail,13.8,DIFFICULT,https://www.mtbproject.com/trail/7020562/national-trail,33.330335,-112.144162,Laveen,0.979057592,4.8,,,,,1961,1729,5,35,2465,1259,Leashed,Allowed
High on the Hog,0.3,DIFFICULT,https://www.mtbproject.com/trail/7000535/high-on-the-hog,34.834876,-111.753601,Sedona,0.978010471,4.4,Verde Valley Cyclists Coalition,https://www.mtbproject.com/club/4920204/verde-valley-cyclists-coalition,USFS - Coconino National Forest Office,http://www.fs.usda.gov/coconino,29,96,7,18,4587,4491,Unknown,Unknown
Pigtail,0.6,DIFFICULT,https://www.mtbproject.com/trail/4916526/pigtail,34.837493,-111.771451,Sedona,0.976963351,4.7,Verde Valley Cyclists Coalition,https://www.mtbproject.com/club/4920204/verde-valley-cyclists-coalition,USFS - Coconino National Forest Office,http://www.fs.usda.gov/coconino,45,137,6,11,4379,4242,Unknown,Unknown
Arizona Trail (Aspen Corner to FR 418),7,INTERMEDIATE,https://www.mtbproject.com/trail/937006/arizona-trail-aspen-corner-to-fr-418,35.322299,-111.720525,Flagstaff,0.97591623,4.7,USFS - Coconino National Forest Office,http://www.fs.usda.gov/coconino,,,291,857,3,9,9014,8280,Leashed,Unknown
Sidewinder Trail,7.1,INTERMEDIATE/DIFFICULT,https://www.mtbproject.com/trail/6429777/sidewinder-trail,33.797847,-112.085197,Anthem,0.97486911,4.1,,,,,683,806,4,16,2082,1739,Leashed,Unknown
Sonoran Loop Competitive Track - Outer Loop,7.1,INTERMEDIATE,https://www.mtbproject.com/trail/7001277/sonoran-loop-competitive-track-outer-loop,33.60881,-112.50091,Citrus Park,0.97382199,4.2,,,,,518,520,3,15,1720,1491,Leashed,Allowed
Long Loop,8,INTERMEDIATE,https://www.mtbproject.com/trail/5121460/long-loop,33.667027,-111.69902,Fountain Hills,0.972774869,4,,,,,457,450,2,10,1751,1560,Unknown,Allowed
Schultz Creek Trail,4.2,INTERMEDIATE,https://www.mtbproject.com/trail/833543/schultz-creek-trail,35.244833,-111.66138,Flagstaff,0.971727749,4.3,Flagstaff Biking Organization,https://www.mtbproject.com/club/910893/flagstaff-biking-organization,USFS - Coconino National Forest Office,http://www.fs.usda.gov/coconino,873,1,4,14,8071,7198,Unknown,Unknown
Little Horse Trail,1.5,INTERMEDIATE/DIFFICULT,https://www.mtbproject.com/trail/4915693/little-horse-trail,34.829368,-111.754554,Sedona,0.970680628,4.1,Verde Valley Cyclists Coalition,https://www.mtbproject.com/club/4920204/verde-valley-cyclists-coalition,USFS - Coconino National Forest Office,http://www.fs.usda.gov/coconino,22,349,5,12,4569,4225,Unknown,Not Allowed
Hog Wash Trail,1.3,DIFFICULT,https://www.mtbproject.com/trail/7013468/hog-wash-trail,34.839565,-111.767921,Sedona,0.969633508,4.1,Verde Valley Cyclists Coalition,https://www.mtbproject.com/club/4920204/verde-valley-cyclists-coalition,USFS - Coconino National Forest Office,http://www.fs.usda.gov/coconino,90,138,3,15,4403,4311,Unknown,Unknown
Geronimo Trail,1.9,DIFFICULT,https://www.mtbproject.com/trail/4865778/geronimo-trail,33.343252,-112.044332,Guadalupe,0.968586387,4.9,City of Phoenix - Trails and Desert Preserves,http://phoenix.gov/recreation/rec/parks/preserves/index.html,,,0,1026,10,31,2328,1302,Unknown,Allowed
Canyon of Fools,1.2,INTERMEDIATE/DIFFICULT,https://www.mtbproject.com/trail/7011194/canyon-of-fools,34.905446,-111.839355,West Sedona,0.967539267,4.4,Verde Valley Cyclists Coalition,https://www.mtbproject.com/club/4920204/verde-valley-cyclists-coalition,USFS - Coconino National Forest Office,http://www.fs.usda.gov/coconino,78,256,5,13,4641,4463,Unknown,Unknown
Hawknest Trail,11.6,EASY/INTERMEDIATE,https://www.mtbproject.com/trail/7009302/hawknest-trail,33.806805,-111.787135,Carefree,0.966492147,4.5,City of Scottsdale,http://www.scottsdaleaz.gov/preserve,,,362,662,2,5,2957,2388,Leashed,Not Allowed
Sunset,4.7,DIFFICULT,https://www.mtbproject.com/trail/978181/sunset,35.284697,-111.631475,Flagstaff,0.965445026,4.6,Flagstaff Biking Organization,https://www.mtbproject.com/club/910893/flagstaff-biking-organization,USFS - Coconino National Forest Office,http://www.fs.usda.gov/coconino,1488,486,8,50,9140,8058,Unknown,Unknown
Technical Loop,2.7,DIFFICULT,https://www.mtbproject.com/trail/5121383/technical-loop,33.669015,-111.701921,Fountain Hills,0.964397906,4.4,,,,,273,285,4,11,1816,1618,No Dogs,Allowed
Grand Central,1.8,INTERMEDIATE/DIFFICULT,https://www.mtbproject.com/trail/4920687/grand-central,34.867231,-111.76872,Sedona,0.963350785,4.3,Verde Valley Cyclists Coalition,https://www.mtbproject.com/club/4920204/verde-valley-cyclists-coalition,USFS - Coconino National Forest Office,http://www.fs.usda.gov/coconino,400,188,6,21,4642,4242,Unknown,Unknown
Cathedral Rock Connector Trail,0.3,DIFFICULT,https://www.mtbproject.com/trail/4933774/cathedral-rock-connector-trail,34.821153,-111.78895,West Sedona,0.962303665,4.7,,,,,0,107,7,23,4153,4045,Unknown,Unknown
Rail X Ranch / Honeybee Canyon Loop,13.7,INTERMEDIATE,https://www.mtbproject.com/trail/7012708/rail-x-ranch-honeybee-canyon-loop,32.475746,-110.960497,Catalina,0.961256545,4.4,,,,,729,725,2,9,3660,3061,Unknown,Unknown
TRW Trail,2,EASY/INTERMEDIATE,https://www.mtbproject.com/trail/7022869/trw-trail,33.502995,-111.684153,Fountain Hills,0.960209424,4.5,USFS - Tonto National Forest Office,http://www.fs.usda.gov/tonto/,,,76,161,2,6,1508,1362,Unknown,Unknown
Upper 50-Year Trail,1,DIFFICULT,https://www.mtbproject.com/trail/7017453/upper-50-year-trail,32.501221,-110.859652,Catalina,0.959162304,4.8,Sonoran Desert Mountain Bicyclists,https://www.mtbproject.com/club/112648/sonoran-desert-mountain-bicyclists,,,90,308,7,24,3611,3320,Off-leash,Unknown
La Milagrosa,4.4,DIFFICULT,https://www.mtbproject.com/trail/306975/la-milagrosa,32.324856,-110.668805,Tanque Verde,0.958115183,4.3,Tucson Off Road Cyclists & Activists (TORCA),https://www.mtbproject.com/club/7000193/tucson-off-road-cyclists-activists-torca,USFS - Coronado National Forest Office,http://www.fs.usda.gov/coronado,213,1381,7,23,4029,2809,Leashed,Not Allowed
Baldwin Loop,2.1,INTERMEDIATE/DIFFICULT,https://www.mtbproject.com/trail/600453/baldwin-loop,34.822517,-111.799667,West Sedona,0.957068063,3.8,Verde Valley Cyclists Coalition,https://www.mtbproject.com/club/4920204/verde-valley-cyclists-coalition,USFS - Coconino National Forest Office,http://www.fs.usda.gov/coconino,245,236,4,16,4126,3959,Unknown,Unknown
Badlands Trail,6.7,INTERMEDIATE,https://www.mtbproject.com/trail/7007557/badlands-trail,32.528302,-111.007497,Catalina,0.956020942,4.4,,,,,318,307,2,6,3736,3546,Unknown,Unknown
South Loop,3.4,EASY/INTERMEDIATE,https://www.mtbproject.com/trail/7041928/south-loop,32.024979,-110.563073,Mescal,0.954973822,4.4,,,,,188,249,2,7,3887,3764,No Dogs,Unknown
Horton Creek Trail,3.5,INTERMEDIATE/DIFFICULT,https://www.mtbproject.com/trail/7017424/horton-creek-trail,34.339907,-111.09616,Star Valley,0.953926702,5,,,,,1214,9,7,29,6646,5436,Off-leash,Unknown
Granite Mountain Loop Trail,4.6,INTERMEDIATE,https://www.mtbproject.com/trail/7012695/granite-mountain-loop-trail,33.770058,-111.798436,Rio Verde,0.952879581,4.5,City of Scottsdale,http://www.scottsdaleaz.gov/preserve,,,356,305,3,8,2935,2670,Unknown,Not Allowed
Made in the Shade,1.3,DIFFICULT,https://www.mtbproject.com/trail/4932620/made-in-the-shade,34.80087,-111.770076,Village of Oak Creek (Big Park),0.951832461,3.8,Verde Valley Cyclists Coalition,https://www.mtbproject.com/club/4920204/verde-valley-cyclists-coalition,USFS - Coconino National Forest Office,http://www.fs.usda.gov/coconino,166,305,7,18,4540,4259,Unknown,Unknown
Goldwater Lakes Trail #396,4.6,INTERMEDIATE,https://www.mtbproject.com/trail/4422817/goldwater-lakes-trail-396,34.505589,-112.478075,Prescott,0.95078534,4.1,Prescott Mountain Bike Alliance,https://www.mtbproject.com/club/31782/prescott-mountain-bike-alliance,USFS - Prescott National Forest Office,http://www.fs.usda.gov/prescott/,872,338,5,12,6164,5630,Unknown,Unknown
Firewater Trail #325,1.1,INTERMEDIATE,https://www.mtbproject.com/trail/7018140/firewater-trail-325,34.558724,-112.526305,Prescott,0.94973822,5,Prescott Mountain Bike Alliance,https://www.mtbproject.com/club/31782/prescott-mountain-bike-alliance,USFS - Prescott National Forest Office,http://www.fs.usda.gov/prescott/,0,244,4,10,5911,5667,Unknown,Unknown
The Chutes,1.4,INTERMEDIATE/DIFFICULT,https://www.mtbproject.com/trail/4743176/the-chutes,32.494076,-110.867719,Catalina,0.948691099,4.1,Sonoran Desert Mountain Bicyclists,https://www.mtbproject.com/club/112648/sonoran-desert-mountain-bicyclists,AZ State Land Department,http://www.azland.gov/,160,163,4,9,3289,3127,Unknown,Unknown
Bell Rock Trail,3.5,EASY/INTERMEDIATE,https://www.mtbproject.com/trail/4915849/bell-rock-trail,34.824361,-111.775475,Village of Oak Creek (Big Park),0.947643979,3.5,Verde Valley Cyclists Coalition,https://www.mtbproject.com/club/4920204/verde-valley-cyclists-coalition,USFS - Coconino National Forest Office,http://www.fs.usda.gov/coconino,200,297,3,6,4386,4173,Unknown,Unknown
Secret Trail,0.9,INTERMEDIATE,https://www.mtbproject.com/trail/3589571/secret-trail,33.334756,-112.026761,Guadalupe,0.946596859,4.4,City of Phoenix - Trails and Desert Preserves,http://phoenix.gov/recreation/rec/parks/preserves/index.html,,,21,97,3,7,1523,1431,Unknown,Allowed
Ranch Trail #62,9.5,INTERMEDIATE,https://www.mtbproject.com/trail/7000300/ranch-trail-62,34.495069,-112.439276,Prescott,0.945549738,4.7,Prescott Mountain Bike Alliance,https://www.mtbproject.com/club/31782/prescott-mountain-bike-alliance,USFS - Prescott National Forest Office,http://www.fs.usda.gov/prescott/,592,1164,3,13,6556,5603,Unknown,Unknown
Inner Basin Trail,1.7,INTERMEDIATE/DIFFICULT,https://www.mtbproject.com/trail/7000138/inner-basin-trail,35.346285,-111.639219,Flagstaff,0.944502618,5,Flagstaff Biking Organization,https://www.mtbproject.com/club/910893/flagstaff-biking-organization,USFS - Coconino National Forest Office,http://www.fs.usda.gov/coconino,0,718,8,21,9373,8654,Unknown,Unknown
Peavine Trail,5.4,EASY,https://www.mtbproject.com/trail/7001406/peavine-trail,34.575456,-112.42732,Prescott,0.943455497,4.5,Prescott Mountain Bike Alliance,https://www.mtbproject.com/club/31782/prescott-mountain-bike-alliance,,,46,252,1,3,5204,4986,Leashed,Unknown
Los Burros Shortcut,2,INTERMEDIATE,https://www.mtbproject.com/trail/7016114/los-burros-shortcut,34.137776,-109.74787,Pinetop-Lakeside,0.942408377,5,Pinetop-Lakeside TRACKS,https://www.mtbproject.com/club/1027178/pinetop-lakeside-tracks,USFS - Apache & Sitgreaves National Forests Office,http://www.fs.usda.gov/asnf,47,356,4,17,8161,7851,Unknown,Unknown
Cherum Peak Trail,2.6,DIFFICULT,https://www.mtbproject.com/trail/7014529/cherum-peak-trail,35.415637,-114.150271,New Kingman-Butler,0.941361257,5,,,,,1100,169,9,26,6915,5858,Unknown,Allowed
#305 Homestead Trail,6.6,INTERMEDIATE/DIFFICULT,https://www.mtbproject.com/trail/4417144/305-homestead-trail,34.540197,-112.3979,Prescott,0.940314136,4.1,Prescott Mountain Bike Alliance,https://www.mtbproject.com/club/31782/prescott-mountain-bike-alliance,USFS - Prescott National Forest Office,http://www.fs.usda.gov/prescott/,978,506,4,16,6056,5473,Unknown,Unknown
Ocotillo Trail,6.3,INTERMEDIATE,https://www.mtbproject.com/trail/7011741/ocotillo-trail,33.768669,-112.043964,Cave Creek,0.939267016,4.1,,,,,448,322,2,10,1919,1701,Leashed,Unknown
Javelina,1.3,INTERMEDIATE/DIFFICULT,https://www.mtbproject.com/trail/4920153/javelina,34.881352,-111.771011,Sedona,0.938219895,4.2,Verde Valley Cyclists Coalition,https://www.mtbproject.com/club/4920204/verde-valley-cyclists-coalition,USFS - Coconino National Forest Office,http://www.fs.usda.gov/coconino,32,333,6,14,4542,4241,Unknown,Unknown
Molino Basin,2.5,INTERMEDIATE/DIFFICULT,https://www.mtbproject.com/trail/305799/molino-basin,32.336052,-110.719919,Tanque Verde,0.937172775,4,Tucson Off Road Cyclists & Activists (TORCA),https://www.mtbproject.com/club/7000193/tucson-off-road-cyclists-activists-torca,USFS - Coronado National Forest Office,http://www.fs.usda.gov/coronado,169,676,6,25,4913,4320,Unknown,Unknown
Burro Pit Loop,2.4,INTERMEDIATE,https://www.mtbproject.com/trail/7056286/burro-pit-loop,32.155867,-110.778121,Tanque Verde,0.936125654,5,,,,,66,98,1,7,2832,2801,Unknown,Not Allowed
Ridge Trail #59,1.9,INTERMEDIATE,https://www.mtbproject.com/trail/666198/ridge-trail-59,33.50247,-111.665054,Fountain Hills,0.935078534,4.4,USFS - Tonto National Forest Office,http://www.fs.usda.gov/tonto/,,,70,377,4,10,1739,1373,Unknown,Unknown
Latigo Trail,2,EASY,https://www.mtbproject.com/trail/7009162/latigo-trail,33.758176,-111.843289,Carefree,0.934031414,4.8,City of Scottsdale,http://www.scottsdaleaz.gov/preserve,,,107,133,2,7,2837,2706,Leashed,Not Allowed
Quartz Trail,1.4,INTERMEDIATE,https://www.mtbproject.com/trail/647570/quartz-trail,33.837425,-111.986247,Cave Creek,0.932984293,4.8,,,,,70,299,5,9,2407,2114,Unknown,Allowed
Soldier's Trail,5.2,INTERMEDIATE,https://www.mtbproject.com/trail/7016899/soldiers-trail,35.139736,-111.687791,Kachina Village,0.931937173,3.8,Coconino County and the City of Flagstaff,http://www.flagstaff.az.gov/index.aspx?NID=1379,,,306,310,2,8,7129,6955,Unknown,Unknown
Badger Trail,3.3,DIFFICULT,https://www.mtbproject.com/trail/926183/badger-trail,35.225397,-114.129097,Golden Valley,0.930890052,4.7,Colorado River Area Trail Alliance,https://www.mtbproject.com/club/4044379/colorado-river-area-trail-alliance,BLM Arizona - Kingman Field Office,http://www.blm.gov/az/st/en/fo/kingman_field_office.html,1042,4,6,11,4485,3446,Unknown,Unknown
Dixie Mountain Loop,4,INTERMEDIATE,https://www.mtbproject.com/trail/4905656/dixie-mountain-loop,33.744881,-112.092994,Anthem,0.929842932,4.5,Cave Creek Bicycle Association,https://www.mtbproject.com/club/31765/cave-creek-bicycle-association,City of Phoenix - Trails and Desert Preserves,http://phoenix.gov/recreation/rec/parks/preserves/index.html,543,540,5,18,2047,1654,Leashed,Unknown
Explorer Trail,4.7,DIFFICULT,https://www.mtbproject.com/trail/6358612/explorer-trail,32.182587,-111.015653,Drexel Heights,0.928795812,4,Sonoran Desert Mountain Bicyclists,https://www.mtbproject.com/club/112648/sonoran-desert-mountain-bicyclists,"Pima County - Natural Resources, Parks and Recreation",http://webcms.pima.gov/government/natural_resources_parks_and_recreation/,671,408,4,19,2968,2497,Unknown,Unknown
Ridgeback Trail,1.8,INTERMEDIATE/DIFFICULT,https://www.mtbproject.com/trail/6425835/ridgeback-trail,33.782654,-112.059577,Cave Creek,0.927748691,4.6,Cave Creek Bicycle Association,https://www.mtbproject.com/club/31765/cave-creek-bicycle-association,City of Phoenix - Trails and Desert Preserves,http://phoenix.gov/recreation/rec/parks/preserves/index.html,278,329,6,21,2110,1812,Unknown,Unknown
Sierra Prieta Trail #366,0.9,INTERMEDIATE,https://www.mtbproject.com/trail/7011265/sierra-prieta-trail-366,34.504878,-112.555644,Prescott,0.926701571,5,USFS - Prescott National Forest Office,http://www.fs.usda.gov/prescott/,,,52,170,5,13,7007,6837,Leashed,Unknown
Hi Top,1.1,DIFFICULT,https://www.mtbproject.com/trail/7025115/hi-top,32.765461,-114.46434,Fortuna Foothills,0.92565445,5,Desert Mountain Bikers of Yuma,https://www.mtbproject.com/club/7000176/desert-mountain-bikers-of-yuma,BLM Arizona - Yuma Field Office,http://www.blm.gov/az/st/en/prog/recreation/hiking/betty_kitch.html,84,56,2,10,527,473,Unknown,Unknown
Naked Man Trail,0.6,INTERMEDIATE,https://www.mtbproject.com/trail/7015618/naked-man-trail,34.436293,-114.258086,Lake Havasu City,0.92460733,5,BLM Lake Havasu Field Office,http://www.blm.gov/az/st/en/fo/lake_havasu_field.html,,,38,56,3,6,852,798,Off-leash,Unknown
AZT: Segment 7 - Antelope Peak and Boulders Segment,43.9,INTERMEDIATE/DIFFICULT,https://www.mtbproject.com/trail/7025879/azt-segment-7-antelope-peak-and-boulders-segment,32.631914,-110.7397,Oracle,0.923560209,5,Arizona Trail Association,http://www.aztrail.org/,,,4450,5177,4,23,4211,2793,Leashed,Unknown
Jordan Trail,1.6,INTERMEDIATE/DIFFICULT,https://www.mtbproject.com/trail/4920426/jordan-trail,34.884602,-111.764714,Sedona,0.922513089,4,Verde Valley Cyclists Coalition,https://www.mtbproject.com/club/4920204/verde-valley-cyclists-coalition,USFS - Coconino National Forest Office,http://www.fs.usda.gov/coconino,174,197,4,11,4583,4445,Unknown,Unknown
Yuma Bike Path (Colorado River Levee Multi-use Path),8.6,EASY,https://www.mtbproject.com/trail/7053977/yuma-bike-path-colorado-river-levee-multi-use-path,32.717413,-114.598871,Yuma,0.921465969,5,,,,,107,112,0,4,161,121,Leashed,Allowed
#9415 Wolverton Mountain Trail,5,INTERMEDIATE/DIFFICULT,https://www.mtbproject.com/trail/4437869/9415-wolverton-mountain-trail,34.505611,-112.478982,Prescott,0.920418848,4.5,Prescott Mountain Bike Alliance,https://www.mtbproject.com/club/31782/prescott-mountain-bike-alliance,USFS - Prescott National Forest Office,http://www.fs.usda.gov/prescott/,1117,235,5,14,6685,5620,Unknown,Unknown
Donahue Trail #27,0.7,INTERMEDIATE,https://www.mtbproject.com/trail/7017543/donahue-trail-27,34.374309,-111.443171,Pine,0.919371728,5,Rim Country Mountain Biking Association,https://www.mtbproject.com/club/7000249/rim-country-mountain-biking-association,USFS - Tonto National Forest Office,http://www.fs.usda.gov/tonto/,169,2,4,11,5548,5381,Unknown,Unknown
Clubhouse Trail,0.9,EASY,https://www.mtbproject.com/trail/7052371/clubhouse-trail,33.689206,-111.991206,Cave Creek,0.918324607,5,,,,,57,2,1,3,1669,1614,Leashed,Allowed
Ledge-n-airy,0.8,INTERMEDIATE/DIFFICULT,https://www.mtbproject.com/trail/7051890/ledge-n-airy,34.849127,-111.849425,West Sedona,0.917277487,5,,,,,204,2,5,16,4393,4191,Unknown,Unknown
Flat Rock Trail,0.5,INTERMEDIATE,https://www.mtbproject.com/trail/7032773/flat-rock-trail,33.834813,-111.976662,Cave Creek,0.916230366,5,Maricopa County Parks,http://www.maricopa.gov/parks/,,,145,1,5,12,2292,2149,Unknown,Allowed
Happy Ending,0.3,DIFFICULT,https://www.mtbproject.com/trail/7041131/happy-ending,34.575782,-112.543104,Prescott,0.915183246,5,Prescott Mountain Bike Alliance,https://www.mtbproject.com/club/31782/prescott-mountain-bike-alliance,USFS - Prescott National Forest Office,http://www.fs.usda.gov/prescott/,5,55,3,6,5750,5700,Leashed,Unknown
FS Road #217,12.8,INTERMEDIATE,https://www.mtbproject.com/trail/7025742/fs-road-217,31.468313,-111.267227,Rio Rico,0.914136126,5,,,,,1475,1628,5,18,4528,3561,Unknown,Unknown
Floaty McZebratail,1.2,INTERMEDIATE,https://www.mtbproject.com/trail/7057115/floaty-mczebratail,32.384085,-112.899088,Ajo,0.913089005,5,BLM - Lower Sonoran Field Office,https://www.blm.gov/office/lower-sonoran-field-office,,,2,146,2,4,1823,1679,Unknown,Unknown
360 Vista,1.1,DIFFICULT,https://www.mtbproject.com/trail/7011526/360-vista,32.172893,-111.044103,Drexel Heights,0.912041885,4.8,Sonoran Desert Mountain Bicyclists,https://www.mtbproject.com/club/112648/sonoran-desert-mountain-bicyclists,"Pima County - Natural Resources, Parks and Recreation",http://webcms.pima.gov/government/natural_resources_parks_and_recreation/,104,183,5,12,2834,2651,Unknown,Unknown
East Butte Trail,2.7,INTERMEDIATE,https://www.mtbproject.com/trail/7013030/east-butte-trail,32.806695,-111.697457,Casa Grande,0.910994764,5,Casa Grande Parks & Recreation,http://www.casagrandeaz.gov/rec/parks/,,,262,291,4,12,1697,1508,Unknown,Unknown
Powerlines Trail,0.7,EASY,https://www.mtbproject.com/trail/7052366/powerlines-trail,33.689558,-111.996434,Cave Creek,0.909947644,5,,,,,31,0,1,1,1636,1605,Leashed,Unknown
Sonny's Trail,1.1,INTERMEDIATE,https://www.mtbproject.com/trail/7015599/sonnys-trail,34.439545,-114.257691,Lake Havasu City,0.908900524,5,BLM Lake Havasu Field Office,http://www.blm.gov/az/st/en/fo/lake_havasu_field.html,,,32,215,4,32,885,681,Off-leash,Unknown
Inner Loop Connector,0.4,EASY,https://www.mtbproject.com/trail/7043124/inner-loop-connector,32.025558,-110.569658,Vail,0.907853403,5,,,,,86,2,4,6,3825,3739,Leashed,Unknown
San Tan Trail,6.6,INTERMEDIATE,https://www.mtbproject.com/trail/4819581/san-tan-trail,33.16741,-111.636389,Queen Creek,0.906806283,3.9,San Tan Shredders,https://www.mtbproject.com/club/5002448/san-tan-shredders,Maricopa County Parks,http://www.maricopa.gov/parks/,602,457,3,17,1908,1682,Unknown,Allowed
Danny's Climb,0.8,INTERMEDIATE/DIFFICULT,https://www.mtbproject.com/trail/7057107/dannys-climb,32.396267,-112.908736,Ajo,0.905759162,5,BLM - Lower Sonoran Field Office,https://www.blm.gov/office/lower-sonoran-field-office,,,168,0,4,10,1851,1683,Unknown,Unknown
Navigator South,0.1,EASY,https://www.mtbproject.com/trail/7052383/navigator-south,33.695918,-111.988951,Cave Creek,0.904712042,5,,,,,4,0,1,1,1648,1644,Unknown,Unknown
Cedar Knoll Trail,0.7,EASY,https://www.mtbproject.com/trail/7044430/cedar-knoll-trail,34.627201,-111.763177,Lake Montezuma,0.903664921,5,,,,,41,14,2,5,3712,3677,Unknown,Unknown
Children's Trail,0.4,DIFFICULT,https://www.mtbproject.com/trail/7039547/childrens-trail,33.964342,-109.563688,Eagar,0.902617801,5,,,,,0,255,12,24,9821,9566,No Dogs,Unknown
Mano y Mano,1.2,DIFFICULT,https://www.mtbproject.com/trail/7045501/mano-y-mano,32.805661,-114.479737,Yuma,0.901570681,5,Desert Mountain Bikers of Yuma,https://www.mtbproject.com/club/7000176/desert-mountain-bikers-of-yuma,BLM Arizona - Yuma Field Office,http://www.blm.gov/az/st/en/prog/recreation/hiking/betty_kitch.html,114,69,3,9,435,325,Unknown,Unknown
Johnimal's Junction,0.6,DIFFICULT,https://www.mtbproject.com/trail/7045975/johnimals-junction,35.205317,-114.095285,Kingman,0.90052356,5,City of Kingman,http://www.cityofkingman.gov/,,,11,88,3,13,3680,3597,Unknown,Unknown
Navigator North,0.1,EASY,https://www.mtbproject.com/trail/7052382/navigator-north,33.697077,-111.987675,Cave Creek,0.89947644,5,,,,,11,0,2,2,1660,1649,Unknown,Unknown
Freemont Bend Trail,0.4,EASY,https://www.mtbproject.com/trail/7052368/freemont-bend-trail,33.689341,-111.996389,Cave Creek,0.898429319,5,,,,,10,4,1,1,1608,1598,Leashed,Allowed
Cow Poke Trail,1,EASY,https://www.mtbproject.com/trail/7057140/cow-poke-trail,33.78971,-111.788618,Carefree,0.897382199,5,City of Scottsdale,http://www.scottsdaleaz.gov/preserve,,,137,4,3,5,2757,2624,Leashed,Not Allowed
Lagarto,3.4,INTERMEDIATE,https://www.mtbproject.com/trail/7057702/lagarto,32.307691,-112.878229,Ajo,0.896335079,5,Bike Ajo,https://www.mtbproject.com/club/7000569/bike-ajo,BLM - Lower Sonoran Field Office,https://www.blm.gov/office/lower-sonoran-field-office,132,133,1,8,1855,1737,Unknown,Unknown
Magma,1.9,EASY/INTERMEDIATE,https://www.mtbproject.com/trail/7057682/magma,32.270678,-112.862554,Ajo,0.895287958,5,Bike Ajo,https://www.mtbproject.com/club/7000569/bike-ajo,BLM - Lower Sonoran Field Office,https://www.blm.gov/office/lower-sonoran-field-office,39,42,1,4,1674,1639,Unknown,Unknown
Matt's Loop: East,4.7,INTERMEDIATE,https://www.mtbproject.com/trail/7057631/matts-loop-east,32.308215,-112.889216,Ajo,0.894240838,5,Bike Ajo,https://www.mtbproject.com/club/7000569/bike-ajo,BLM - Lower Sonoran Field Office,https://www.blm.gov/office/lower-sonoran-field-office,123,99,1,2,1846,1737,Unknown,Unknown
Into The Vortex (BLM 8112J),1,INTERMEDIATE,https://www.mtbproject.com/trail/7057407/into-the-vortex-blm-8112j,32.403306,-112.919264,Ajo,0.893193717,5,BLM - Lower Sonoran Field Office,https://www.blm.gov/office/lower-sonoran-field-office,,,111,61,3,17,1737,1626,Unknown,Unknown
Wild Horse Trail,3.6,INTERMEDIATE,https://www.mtbproject.com/trail/7024987/wild-horse-trail,33.521899,-111.658928,Fountain Hills,0.892146597,4.3,USFS - Tonto National Forest Office,http://www.fs.usda.gov/tonto/,,,469,84,3,8,1883,1481,Unknown,Unknown
Easy Breezy,2,INTERMEDIATE,https://www.mtbproject.com/trail/4933409/easy-breezy,34.82515,-111.788878,West Sedona,0.891099476,4,Verde Valley Cyclists Coalition,https://www.mtbproject.com/club/4920204/verde-valley-cyclists-coalition,USFS - Coconino National Forest Office,http://www.fs.usda.gov/coconino,230,0,2,5,4273,4042,Unknown,Unknown
Black Canyon City Connector,0.8,INTERMEDIATE/DIFFICULT,https://www.mtbproject.com/trail/4547892/black-canyon-city-connector,34.052763,-112.151896,Black Canyon City,0.890052356,4.6,Black Canyon Trail Coalition,https://www.mtbproject.com/club/4676322/black-canyon-trail-coalition,BLM Arizona - Hassayampa Field Office,http://www.blm.gov/az/st/en/fo/hassayampa_field_office.html,49,33,2,11,2077,2035,Unknown,Unknown
Gray Fox Trail,0.9,EASY/INTERMEDIATE,https://www.mtbproject.com/trail/7021208/gray-fox-trail,33.608302,-112.501548,Citrus Park,0.889005236,4.6,Maricopa County Parks,http://www.maricopa.gov/parks/,,,83,3,2,5,1585,1503,Unknown,Allowed
Aspen Draw,2.7,DIFFICULT,https://www.mtbproject.com/trail/678823/aspen-draw,32.440439,-110.78564,Catalina,0.887958115,4.5,Tucson Off Road Cyclists & Activists (TORCA),https://www.mtbproject.com/club/7000193/tucson-off-road-cyclists-activists-torca,USFS - Coronado National Forest Office,http://www.fs.usda.gov/coronado,0,1280,9,55,9077,7797,Unknown,Unknown
Peccary Trail,0.4,INTERMEDIATE/DIFFICULT,https://www.mtbproject.com/trail/4915800/peccary-trail,34.84331,-111.767831,Sedona,0.886910995,4.3,USFS - Coconino National Forest Office,http://www.fs.usda.gov/coconino,,,80,0,3,7,4322,4242,Unknown,Unknown
Cowboy Slickrock,1,DIFFICULT,https://www.mtbproject.com/trail/7017454/cowboy-slickrock,32.501895,-110.847111,Catalina,0.885863874,4.5,,,,,105,192,6,12,3769,3609,Off-leash,Unknown
Escondido Trail,6.4,INTERMEDIATE,https://www.mtbproject.com/trail/7000565/escondido-trail,33.706501,-111.717624,Rio Verde,0.884816754,4,Desert Foothills Mountain Bike Association,https://www.mtbproject.com/club/6282206/desert-foothills-mountain-bike-association,Maricopa County Parks,http://www.maricopa.gov/parks/,442,648,3,10,1899,1624,Unknown,Allowed
Country Club #632,3.4,EASY/INTERMEDIATE,https://www.mtbproject.com/trail/7007980/country-club-632,34.141776,-109.892059,Pinetop-Lakeside,0.883769634,4.3,USFS - Apache & Sitgreaves National Forests Office,http://www.fs.usda.gov/asnf,,,198,191,2,11,7340,7205,Unknown,Unknown
Little Yeager Canyon Trail #533,2.1,DIFFICULT,https://www.mtbproject.com/trail/7003736/little-yeager-canyon-trail-533,34.66812,-112.161023,Verde Village,0.882722513,4.8,Prescott Mountain Bike Alliance,https://www.mtbproject.com/club/31782/prescott-mountain-bike-alliance,USFS - Prescott National Forest Office,http://www.fs.usda.gov/prescott/,52,917,9,28,6915,6000,Unknown,Unknown
Spur Cross Trail,4.2,INTERMEDIATE/DIFFICULT,https://www.mtbproject.com/trail/626579/spur-cross-trail,33.888447,-111.950764,Cave Creek,0.881675393,4.4,Cave Creek Bicycle Association,https://www.mtbproject.com/club/31765/cave-creek-bicycle-association,Maricopa County Parks,http://www.maricopa.gov/parks/,551,263,4,14,2764,2294,Unknown,Allowed
Little Bear,3.4,DIFFICULT,https://www.mtbproject.com/trail/979216/little-bear,35.279997,-111.598795,Flagstaff,0.880628272,4.4,Flagstaff Biking Organization,https://www.mtbproject.com/club/910893/flagstaff-biking-organization,USFS - Coconino National Forest Office,http://www.fs.usda.gov/coconino,869,5,5,12,8424,7560,Unknown,Unknown
North Diablo Trail,1.3,INTERMEDIATE/DIFFICULT,https://www.mtbproject.com/trail/7038533/north-diablo-trail,33.795466,-111.826239,Carefree,0.879581152,4.4,City of Scottsdale,http://www.scottsdaleaz.gov/preserve,,,77,35,2,5,2956,2888,Leashed,Not Allowed
Little Cat Trail,1,INTERMEDIATE,https://www.mtbproject.com/trail/7022097/little-cat-trail,32.192668,-111.068259,Tucson Estates,0.878534031,4.1,Sonoran Desert Mountain Bicyclists,https://www.mtbproject.com/club/112648/sonoran-desert-mountain-bicyclists,"Pima County - Natural Resources, Parks and Recreation",http://webcms.pima.gov/government/natural_resources_parks_and_recreation/,62,95,3,11,2833,2780,No Dogs,Unknown
Helipad Trail,1.1,DIFFICULT,https://www.mtbproject.com/trail/3637282/helipad-trail,33.326455,-112.038601,Guadalupe,0.877486911,4.3,City of Phoenix - Trails and Desert Preserves,http://phoenix.gov/recreation/rec/parks/preserves/index.html,,,327,77,7,18,1789,1469,Unknown,Allowed
Dynamite Trail,2.3,INTERMEDIATE,https://www.mtbproject.com/trail/4532598/dynamite-trail,33.18747,-111.656718,Queen Creek,0.876439791,4,Maricopa County Parks,http://www.maricopa.gov/parks/,,,338,163,4,20,1894,1617,Unknown,Allowed
Estrella Foothills Loop,7.5,INTERMEDIATE/DIFFICULT,https://www.mtbproject.com/trail/7012975/estrella-foothills-loop,33.334321,-112.424293,Goodyear,0.87539267,3.9,West Valley Trail Alliance,https://www.mtbproject.com/club/7000163/west-valley-trail-alliance,,,509,497,3,11,1292,1038,Unknown,Unknown
Hawes Trail,2.1,DIFFICULT,https://www.mtbproject.com/trail/666131/hawes-trail,33.495242,-111.649801,Apache Junction,0.87434555,4.3,USFS - Tonto National Forest Office,http://www.fs.usda.gov/tonto/,,,57,481,5,12,2031,1607,Unknown,Unknown
Yeager Cabin Trail #111,2,INTERMEDIATE,https://www.mtbproject.com/trail/7003735/yeager-cabin-trail-111,34.690829,-112.156217,Verde Village,0.873298429,4.6,Prescott Mountain Bike Alliance,https://www.mtbproject.com/club/31782/prescott-mountain-bike-alliance,USFS - Prescott National Forest Office,http://www.fs.usda.gov/prescott/,133,517,6,25,7188,6690,Unknown,Unknown
Arizona Trail (Snowbowl Road to Aspen Corner),4.8,INTERMEDIATE,https://www.mtbproject.com/trail/936868/arizona-trail-snowbowl-road-to-aspen-corner,35.283634,-111.711048,Flagstaff,0.872251309,4.2,USFS - Coconino National Forest Office,http://www.fs.usda.gov/coconino,,,1235,62,5,14,8842,7665,Unknown,Unknown
Painter Boy,4.9,INTERMEDIATE,https://www.mtbproject.com/trail/7024990/painter-boy,32.721237,-110.910389,Catalina,0.871204188,4.7,,,,,525,256,3,13,4349,4016,Unknown,Unknown
Moby #737,2,INTERMEDIATE/DIFFICULT,https://www.mtbproject.com/trail/7017743/moby-737,34.487287,-112.538441,Prescott,0.870157068,4.7,Prescott Mountain Bike Alliance,https://www.mtbproject.com/club/31782/prescott-mountain-bike-alliance,USFS - Prescott National Forest Office,http://www.fs.usda.gov/prescott/,69,481,5,24,6868,6435,Unknown,Unknown
Pyramid,1.3,DIFFICULT,https://www.mtbproject.com/trail/7038544/pyramid,34.834013,-111.824335,West Sedona,0.869109948,4.3,,,,,38,288,5,22,4314,4063,Unknown,Unknown
Ryan's Trail,3.4,INTERMEDIATE,https://www.mtbproject.com/trail/7011359/ryans-trail,32.764819,-114.495044,Yuma,0.868062827,4.7,Desert Mountain Bikers of Yuma,https://www.mtbproject.com/club/7000176/desert-mountain-bikers-of-yuma,BLM Arizona - Yuma Field Office,http://www.blm.gov/az/st/en/prog/recreation/hiking/betty_kitch.html,326,114,2,12,408,196,Unknown,Unknown
Saguaro Trail,3.2,DIFFICULT,https://www.mtbproject.com/trail/7034858/saguaro-trail,33.499564,-111.676634,Fountain Hills,0.867015707,4.4,,,,,332,475,5,17,1751,1370,Unknown,Unknown
Holbert Trail,2.5,VERY DIFFICULT,https://www.mtbproject.com/trail/4865928/holbert-trail,33.338531,-112.052327,Guadalupe,0.865968586,4.5,City of Phoenix - Trails and Desert Preserves,http://phoenix.gov/recreation/rec/parks/preserves/index.html,,,10,1043,8,25,2397,1362,Leashed,Allowed
50 Year Trail Segment,6.8,INTERMEDIATE,https://www.mtbproject.com/trail/4761012/50-year-trail-segment,32.417829,-110.93838,Oro Valley,0.864921466,3.4,,,,,720,165,2,11,3201,2643,Unknown,Unknown
Saddle Trail,1.4,DIFFICULT,https://www.mtbproject.com/trail/666170/saddle-trail,33.495594,-111.664084,Fountain Hills,0.863874346,4.5,USFS - Tonto National Forest Office,http://www.fs.usda.gov/tonto/,,,89,271,5,17,1790,1577,Unknown,Unknown
Huckaby,3.1,DIFFICULT,https://www.mtbproject.com/trail/4920206/huckaby,34.866723,-111.748867,Sedona,0.862827225,4.2,Verde Valley Cyclists Coalition,https://www.mtbproject.com/club/4920204/verde-valley-cyclists-coalition,USFS - Coconino National Forest Office,http://www.fs.usda.gov/coconino,537,465,6,23,4539,4290,Unknown,Unknown
Buena Vista Trail #637,10.1,INTERMEDIATE/DIFFICULT,https://www.mtbproject.com/trail/7037214/buena-vista-trail-637,34.203931,-110.079708,Show Low,0.861780105,4.4,,,,,1160,1196,4,18,6816,6526,Unknown,Unknown
Snake Dance Loop,2,EASY/INTERMEDIATE,https://www.mtbproject.com/trail/7009763/snake-dance-loop,32.124528,-110.785792,Vail,0.860732984,3.9,,,,,60,61,1,4,2935,2894,Unknown,Unknown
Deadmans Pass,1.3,INTERMEDIATE,https://www.mtbproject.com/trail/4958823/deadmans-pass,34.907648,-111.849092,West Sedona,0.859685864,4.1,Verde Valley Cyclists Coalition,https://www.mtbproject.com/club/4920204/verde-valley-cyclists-coalition,USFS - Coconino National Forest Office,http://www.fs.usda.gov/coconino,196,63,4,7,4705,4518,Unknown,Unknown
Go John Trail,5.7,DIFFICULT,https://www.mtbproject.com/trail/7032557/go-john-trail,33.832627,-112.001042,Cave Creek,0.858638743,3.9,,,,,763,758,5,14,2522,2124,Leashed,Allowed
Submarine Rock Trail,0.8,INTERMEDIATE/DIFFICULT,https://www.mtbproject.com/trail/4915570/submarine-rock-trail,34.837737,-111.753655,Sedona,0.857591623,4.2,Verde Valley Cyclists Coalition,https://www.mtbproject.com/club/4920204/verde-valley-cyclists-coalition,USFS - Coconino National Forest Office,http://www.fs.usda.gov/coconino,77,54,3,9,4471,4397,Unknown,Unknown
Girdner Trail,5.1,INTERMEDIATE/DIFFICULT,https://www.mtbproject.com/trail/4943363/girdner-trail,34.887925,-111.822826,West Sedona,0.856544503,3.3,Verde Valley Cyclists Coalition,https://www.mtbproject.com/club/4920204/verde-valley-cyclists-coalition,USFS - Coconino National Forest Office,http://www.fs.usda.gov/coconino,398,494,3,12,4601,4250,Unknown,Unknown
Javelina Canyon Trail,1.9,INTERMEDIATE/DIFFICULT,https://www.mtbproject.com/trail/4608470/javelina-canyon-trail,33.374269,-111.985843,Guadalupe,0.855497382,3.9,City of Phoenix - Trails and Desert Preserves,http://phoenix.gov/recreation/rec/parks/preserves/index.html,,,387,33,4,11,1613,1247,Unknown,Allowed
Walnut Meadows Loop,4,EASY,https://www.mtbproject.com/trail/921335/walnut-meadows-loop,35.201155,-111.560949,Flagstaff,0.854450262,4.2,Flagstaff Biking Organization,https://www.mtbproject.com/club/910893/flagstaff-biking-organization,USFS - Coconino National Forest Office,http://www.fs.usda.gov/coconino,153,156,1,9,6866,6797,Unknown,Unknown
Lower Corona de Loma,1,INTERMEDIATE,https://www.mtbproject.com/trail/3589489/lower-corona-de-loma,33.332992,-112.025081,Guadalupe,0.853403141,4.1,City of Phoenix - Trails and Desert Preserves,http://phoenix.gov/recreation/rec/parks/preserves/index.html,,,127,144,5,18,1615,1477,Unknown,Allowed
Rim Trail,10.4,INTERMEDIATE,https://www.mtbproject.com/trail/7026481/rim-trail,36.934925,-111.459502,Page,0.852356021,4.2,City of Page Recreation Department,http://www.cityofpage.org/departments/recreation-dept,,,354,354,1,17,4343,4052,Unknown,Unknown
Mormon Loop Trail,1.5,DIFFICULT,https://www.mtbproject.com/trail/7020539/mormon-loop-trail,33.35489,-112.020464,Guadalupe,0.851308901,4.3,City of Phoenix - Trails and Desert Preserves,http://phoenix.gov/recreation/rec/parks/preserves/index.html,,,35,416,6,21,1992,1579,Leashed,Allowed
Maricopa Trail: White Tank - Grand Avenue,12.7,EASY/INTERMEDIATE,https://www.mtbproject.com/trail/7010993/maricopa-trail-white-tank-grand-avenue,33.585083,-112.496104,Citrus Park,0.85026178,4.1,AZ State Land Department,http://www.azland.gov/,,,51,133,0,4,1419,1337,Unknown,Allowed
Scorpion,2.1,INTERMEDIATE/DIFFICULT,https://www.mtbproject.com/trail/7038545/scorpion,34.846156,-111.828575,West Sedona,0.84921466,3.8,,,,,39,447,4,12,4474,4050,Unknown,Unknown
Bones Trail,5.8,INTERMEDIATE,https://www.mtbproject.com/trail/5400419/bones-trail,34.764238,-112.012262,Cottonwood,0.848167539,4.1,Verde Valley Cyclists Coalition,https://www.mtbproject.com/club/4920204/verde-valley-cyclists-coalition,USFS - Coconino National Forest Office,http://www.fs.usda.gov/coconino,730,169,3,11,4079,3475,Unknown,Unknown
Outer Limits,6.3,INTERMEDIATE/DIFFICULT,https://www.mtbproject.com/trail/7051886/outer-limits,34.880077,-111.863376,West Sedona,0.847120419,4.3,,,,,486,615,3,13,4594,4135,Unknown,Unknown
Long Canyon Trail,1.1,EASY/INTERMEDIATE,https://www.mtbproject.com/trail/4959420/long-canyon-trail,34.919508,-111.831243,West Sedona,0.846073298,4,Verde Valley Cyclists Coalition,https://www.mtbproject.com/club/4920204/verde-valley-cyclists-coalition,USFS - Coconino National Forest Office,http://www.fs.usda.gov/coconino,10,137,2,8,4654,4521,Unknown,Unknown
Ground Control,0.8,DIFFICULT,https://www.mtbproject.com/trail/7052660/ground-control,34.878507,-111.859962,West Sedona,0.845026178,4.3,,,,,87,240,8,23,4713,4495,Leashed,Not Allowed
Loop Trail - Walnut Canyon Segment,8.8,INTERMEDIATE,https://www.mtbproject.com/trail/1006602/loop-trail-walnut-canyon-segment,35.155279,-111.65538,Flagstaff,0.843979058,3.8,Flagstaff Biking Organization,https://www.mtbproject.com/club/910893/flagstaff-biking-organization,USFS - Coconino National Forest Office,http://www.fs.usda.gov/coconino,480,584,2,11,7035,6839,Off-leash,Unknown
Chipmunk Springs,7.7,INTERMEDIATE,https://www.mtbproject.com/trail/7007978/chipmunk-springs,34.145969,-109.874523,Pinetop-Lakeside,0.842931937,4.3,Pinetop-Lakeside TRACKS,https://www.mtbproject.com/club/1027178/pinetop-lakeside-tracks,USFS - Apache & Sitgreaves National Forests Office,http://www.fs.usda.gov/asnf,720,147,2,11,7810,7230,Unknown,Unknown
Chuckwagon Trail,2.4,EASY/INTERMEDIATE,https://www.mtbproject.com/trail/7035761/chuckwagon-trail,33.780422,-111.817642,Carefree,0.841884817,4.4,,,,,51,202,2,5,2868,2717,Leashed,Not Allowed
Tech Ridge,1.1,DIFFICULT,https://www.mtbproject.com/trail/6451842/tech-ridge,35.19874,-114.116503,Kingman,0.840837696,4.4,,,,,131,44,3,13,3960,3842,Unknown,Unknown
Trail 100 - East,3.8,INTERMEDIATE,https://www.mtbproject.com/trail/4879142/trail-100-east,33.564756,-111.978036,Paradise Valley,0.839790576,3.5,City of Phoenix - Trails and Desert Preserves,http://phoenix.gov/recreation/rec/parks/preserves/index.html,,,326,322,3,10,1650,1395,Unknown,Unknown
Cactus Forest Trail,2.6,EASY/INTERMEDIATE,https://www.mtbproject.com/trail/7015496/cactus-forest-trail,32.199495,-110.721491,Tanque Verde,0.838743455,4.1,,,,,218,32,2,6,3093,2905,No Dogs,Not Allowed
Pine-Strawberry Trail,4.5,INTERMEDIATE,https://www.mtbproject.com/trail/7034644/pine-strawberry-trail,34.371588,-111.479696,Pine,0.837696335,4.5,,,,,811,564,6,19,6028,5689,Unknown,Unknown
Big Park Loop,2.1,INTERMEDIATE,https://www.mtbproject.com/trail/4922861/big-park-loop,34.792129,-111.760105,Village of Oak Creek (Big Park),0.836649215,3.7,Verde Valley Cyclists Coalition,https://www.mtbproject.com/club/4920204/verde-valley-cyclists-coalition,USFS - Coconino National Forest Office,http://www.fs.usda.gov/coconino,132,128,2,6,4285,4162,Unknown,Unknown
Badger Brawl Trail,3.4,EASY/INTERMEDIATE,https://www.mtbproject.com/trail/7004150/badger-brawl-trail,33.784006,-111.995661,Cave Creek,0.835602094,4.1,,,,,20,145,1,3,1858,1726,Leashed,Unknown
Bones Trail,3,INTERMEDIATE,https://www.mtbproject.com/trail/7025034/bones-trail,34.764238,-112.012262,Catalina,0.834554974,4.5,,,,,101,371,3,12,4308,4002,Unknown,Unknown
Cholla Mountain Loop,3.1,EASY/INTERMEDIATE,https://www.mtbproject.com/trail/4857187/cholla-mountain-loop,33.779541,-111.822026,Carefree,0.833507853,4,City of Scottsdale,http://www.scottsdaleaz.gov/preserve,,,204,207,3,7,3011,2806,Unknown,Not Allowed
Vista Trail,1.6,INTERMEDIATE,https://www.mtbproject.com/trail/7035221/vista-trail,34.578504,-112.533797,Prescott,0.832460733,4.5,Prescott Mountain Bike Alliance,https://www.mtbproject.com/club/31782/prescott-mountain-bike-alliance,USFS - Prescott National Forest Office,http://www.fs.usda.gov/prescott/,313,15,4,11,5935,5635,Leashed,Unknown
Sunset Loop Trail,2.1,EASY/INTERMEDIATE,https://www.mtbproject.com/trail/7044433/sunset-loop-trail,34.634356,-111.758848,Lake Montezuma,0.831413613,4.5,,,,,113,114,2,5,3811,3701,Unknown,Unknown
Tech Loop,0.8,DIFFICULT,https://www.mtbproject.com/trail/7025312/tech-loop,33.381441,-111.393,Gold Camp,0.830366492,4.5,AZ State Land Department,http://www.azland.gov/,,,52,54,3,7,2173,2123,Unknown,Unknown
Ridgeline Trail,2.7,INTERMEDIATE/DIFFICULT,https://www.mtbproject.com/trail/5506519/ridgeline-trail,32.499782,-111.03697,Catalina,0.829319372,4.5,"Pima County - Natural Resources, Parks and Recreation",http://webcms.pima.gov/government/natural_resources_parks_and_recreation/,,,11,628,5,15,4212,3594,Unknown,Unknown
Russ T. Fender,0.9,INTERMEDIATE,https://www.mtbproject.com/trail/7036139/russ-t-fender,34.56425,-112.543149,Prescott,0.828272251,4.5,Prescott Mountain Bike Alliance,https://www.mtbproject.com/club/31782/prescott-mountain-bike-alliance,USFS - Prescott National Forest Office,http://www.fs.usda.gov/prescott/,201,12,5,12,5947,5746,Leashed,Unknown
Ridge Trail (Difficult),1.4,INTERMEDIATE/DIFFICULT,https://www.mtbproject.com/trail/7013033/ridge-trail-difficult,32.806371,-111.70273,Casa Grande,0.827225131,4.5,Casa Grande Parks & Recreation,http://www.casagrandeaz.gov/rec/parks/,,,122,190,4,16,1818,1642,Leashed,Allowed
8-Ball,1.7,INTERMEDIATE,https://www.mtbproject.com/trail/7011802/8-ball,32.772417,-114.444379,Fortuna Foothills,0.82617801,4.5,Desert Mountain Bikers of Yuma,https://www.mtbproject.com/club/7000176/desert-mountain-bikers-of-yuma,BLM Arizona - Yuma Field Office,http://www.blm.gov/az/st/en/prog/recreation/hiking/betty_kitch.html,55,240,3,10,627,387,Unknown,Unknown
Razorback,0.7,DIFFICULT,https://www.mtbproject.com/trail/7042855/razorback,32.790196,-114.471418,Fortuna Foothills,0.82513089,4.5,,,,,8,176,5,12,491,323,Unknown,Unknown
Bunny's Revenge,1.7,EASY,https://www.mtbproject.com/trail/7009764/bunnys-revenge,32.125099,-110.780394,Vail,0.82408377,3.9,,,,,30,31,1,3,2938,2907,Unknown,Unknown
200 Trail,3.9,DIFFICULT,https://www.mtbproject.com/trail/7017422/200-trail,34.225311,-111.304022,Payson,0.823036649,4.1,USFS - Tonto National Forest Office,http://www.fs.usda.gov/tonto/,,,462,582,5,16,5021,4769,Unknown,Unknown
South Diablo Trail,1.5,INTERMEDIATE/DIFFICULT,https://www.mtbproject.com/trail/7037296/south-diablo-trail,33.791591,-111.817912,Carefree,0.821989529,4.1,City of Scottsdale,http://www.scottsdaleaz.gov/preserve,,,64,136,2,6,3004,2898,Leashed,Not Allowed
Sketch,1.3,INTERMEDIATE/DIFFICULT,https://www.mtbproject.com/trail/7013469/sketch,34.842212,-111.802613,West Sedona,0.820942408,4.1,Verde Valley Cyclists Coalition,https://www.mtbproject.com/club/4920204/verde-valley-cyclists-coalition,USFS - Coconino National Forest Office,http://www.fs.usda.gov/coconino,156,175,5,21,4333,4239,Unknown,Unknown
Kellog/Incinerator Ridge,2.1,VERY DIFFICULT,https://www.mtbproject.com/trail/683027/kellogincinerator-ridge,32.414712,-110.71161,Tanque Verde,0.819895288,4,Sonoran Desert Mountain Bicyclists,https://www.mtbproject.com/club/112648/sonoran-desert-mountain-bicyclists,USFS - Coronado National Forest Office,http://www.fs.usda.gov/coronado,70,985,9,39,8293,7378,Unknown,Unknown
Rattler Trail,5.1,DIFFICULT,https://www.mtbproject.com/trail/7015753/rattler-trail,35.206469,-114.08932,Kingman,0.818848168,4,,,,,852,211,4,12,4283,3642,Leashed,Unknown
Hohokam Trail,3.6,INTERMEDIATE,https://www.mtbproject.com/trail/7037757/hohokam-trail,32.023776,-110.606794,Vail,0.817801047,3.9,,,,,339,159,3,11,3752,3536,Leashed,Unknown
Balancing Rock Trail #349,3.2,INTERMEDIATE,https://www.mtbproject.com/trail/7006905/balancing-rock-trail-349,34.606124,-112.533429,Williamson,0.816753927,4.2,Prescott Mountain Bike Alliance,https://www.mtbproject.com/club/31782/prescott-mountain-bike-alliance,USFS - Prescott National Forest Office,http://www.fs.usda.gov/prescott/,276,422,4,10,5931,5597,Unknown,Unknown
Mormon Trail,1.1,DIFFICULT,https://www.mtbproject.com/trail/7020540/mormon-trail,33.366362,-112.031019,Guadalupe,0.815706806,4.2,,,,,712,0,12,34,1986,1274,Leashed,Unknown
Tonto Tank Trail,2.7,EASY/INTERMEDIATE,https://www.mtbproject.com/trail/7014397/tonto-tank-trail,33.6852,-111.770445,Rio Verde,0.814659686,4.2,,,,,0,434,3,5,2299,1865,Leashed,Allowed
Dixie Mine Trail,5,INTERMEDIATE/DIFFICULT,https://www.mtbproject.com/trail/5400065/dixie-mine-trail,33.66829,-111.755173,Fountain Hills,0.813612565,4.2,,,,,445,458,3,7,2387,1998,Unknown,Allowed
Spent Spade,0.6,INTERMEDIATE,https://www.mtbproject.com/trail/7032893/spent-spade,33.316637,-112.45223,Buckeye,0.812565445,4.3,West Valley Trail Alliance,https://www.mtbproject.com/club/7000163/west-valley-trail-alliance,,,0,62,2,6,1128,1065,Leashed,Unknown
Anasazi Loop,1.3,EASY,https://www.mtbproject.com/trail/921173/anasazi-loop,35.202043,-111.557319,Flagstaff,0.811518325,4.2,Flagstaff Biking Organization,https://www.mtbproject.com/club/910893/flagstaff-biking-organization,USFS - Coconino National Forest Office,http://www.fs.usda.gov/coconino,20,62,1,3,6805,6760,Unknown,Unknown
Sunrise Trail,4.4,DIFFICULT,https://www.mtbproject.com/trail/4035016/sunrise-trail,33.602623,-111.810465,Fountain Hills,0.810471204,3.8,Maricopa County Parks,http://www.maricopa.gov/parks/,,,1120,952,9,30,2850,1774,Leashed,Not Allowed
Thunder Mountain,1.9,DIFFICULT,https://www.mtbproject.com/trail/7038548/thunder-mountain,34.873304,-111.812971,West Sedona,0.809424084,3.9,Verde Valley Cyclists Coalition,https://www.mtbproject.com/club/4920204/verde-valley-cyclists-coalition,USFS - Coconino National Forest Office,http://www.fs.usda.gov/coconino,286,240,5,25,4796,4580,Unknown,Unknown
Hermit Road Greenway,2.5,EASY,https://www.mtbproject.com/trail/7012952/hermit-road-greenway,36.0606,-112.182691,Grand Canyon Village,0.808376963,4.2,,,,,76,159,2,7,6820,6726,Unknown,Unknown
Window Rock Loop,1.2,EASY/INTERMEDIATE,https://www.mtbproject.com/trail/7017449/window-rock-loop,32.559077,-111.009527,Catalina,0.807329843,4.2,,,,,26,85,2,4,3718,3653,Unknown,Unknown
Branding Iron Trail,0.9,EASY/INTERMEDIATE,https://www.mtbproject.com/trail/7012588/branding-iron-trail,33.788642,-111.810905,Carefree,0.806282723,4.2,City of Scottsdale,http://www.scottsdaleaz.gov/preserve,,,98,5,2,6,2996,2899,Unknown,Not Allowed
Cone Mountain Trail,1.9,INTERMEDIATE,https://www.mtbproject.com/trail/7009370/cone-mountain-trail,33.773134,-111.852156,Carefree,0.805235602,4,City of Scottsdale,http://www.scottsdaleaz.gov/preserve,,,163,129,3,8,2700,2599,Leashed,Not Allowed
High Desert Trail,4.3,INTERMEDIATE,https://www.mtbproject.com/trail/7023665/high-desert-trail,33.788127,-111.838375,Carefree,0.804188482,4.2,,,,,250,110,2,4,2928,2734,Leashed,Not Allowed
Continental Loop,1.8,EASY/INTERMEDIATE,https://www.mtbproject.com/trail/920880/continental-loop,35.201184,-111.560922,Flagstaff,0.803141361,4.3,USFS - Coconino National Forest Office,http://www.fs.usda.gov/coconino,,,66,68,1,5,6865,6804,Unknown,Unknown
Tortolita Access Trail,2.9,EASY/INTERMEDIATE,https://www.mtbproject.com/trail/7034460/tortolita-access-trail,32.478679,-110.922579,Catalina,0.802094241,4.2,,,,,151,100,2,8,3092,2963,Unknown,Unknown
Bo's Loop,1.6,EASY/INTERMEDIATE,https://www.mtbproject.com/trail/7056287/bos-loop,32.158635,-110.779145,Tanque Verde,0.80104712,4.3,,,,,89,56,2,5,2837,2790,Unknown,Not Allowed
Double Butte Loop,2.3,EASY/INTERMEDIATE,https://www.mtbproject.com/trail/7008979/double-butte-loop,33.46596,-111.952426,Tempe Junction,0.8,3.4,City of Phoenix - Trails and Desert Preserves,http://phoenix.gov/recreation/rec/parks/preserves/index.html,,,114,113,2,5,1357,1244,Leashed,Unknown
Last Frontier,4.3,DIFFICULT,https://www.mtbproject.com/trail/7013615/last-frontier,34.866656,-111.859486,West Sedona,0.79895288,3.7,Verde Valley Cyclists Coalition,https://www.mtbproject.com/club/4920204/verde-valley-cyclists-coalition,USFS - Coconino National Forest Office,http://www.fs.usda.gov/coconino,319,581,4,18,4453,4123,Unknown,Unknown
Teacup,2.1,DIFFICULT,https://www.mtbproject.com/trail/4964091/teacup,34.874336,-111.796433,West Sedona,0.797905759,3.7,Verde Valley Cyclists Coalition,https://www.mtbproject.com/club/4920204/verde-valley-cyclists-coalition,USFS - Coconino National Forest Office,http://www.fs.usda.gov/coconino,201,289,4,15,4683,4468,Unknown,Unknown
Willow Trail #347,6.6,INTERMEDIATE/DIFFICULT,https://www.mtbproject.com/trail/4909174/willow-trail-347,34.593783,-112.508626,Prescott,0.796858639,4,,,,,496,790,4,18,5889,5189,Unknown,Unknown
Scenic Trail,3.5,INTERMEDIATE,https://www.mtbproject.com/trail/7011563/scenic-trail,33.700956,-111.718594,Rio Verde,0.795811518,3.7,Maricopa County Parks,http://www.maricopa.gov/parks/,,,243,272,3,12,2003,1746,Unknown,Allowed
Jedi Trail,1.5,DIFFICULT,https://www.mtbproject.com/trail/4236309/jedi-trail,35.266414,-111.635302,Flagstaff,0.794764398,3.9,Flagstaff Biking Organization,https://www.mtbproject.com/club/910893/flagstaff-biking-organization,Coconino County and the City of Flagstaff,http://www.flagstaff.az.gov/index.aspx?NID=1379,59,366,5,19,8350,8013,Unknown,Unknown
Feldmeier Trail #330,2.6,INTERMEDIATE/DIFFICULT,https://www.mtbproject.com/trail/7007536/feldmeier-trail-330,34.494847,-112.442124,Prescott,0.793717277,3.9,Prescott Mountain Bike Alliance,https://www.mtbproject.com/club/31782/prescott-mountain-bike-alliance,USFS - Prescott National Forest Office,http://www.fs.usda.gov/prescott/,81,489,4,11,6126,5708,Unknown,Unknown
Bell Pass Trail,3.3,DIFFICULT,https://www.mtbproject.com/trail/6535101/bell-pass-trail,33.64695,-111.836821,Fountain Hills,0.792670157,4,Desert Foothills Mountain Bike Association,https://www.mtbproject.com/club/6282206/desert-foothills-mountain-bike-association,City of Scottsdale,http://www.scottsdaleaz.gov/preserve,1187,622,10,35,3197,2021,Unknown,Not Allowed
Whiskey Bottle Trail,3.1,INTERMEDIATE,https://www.mtbproject.com/trail/7009191/whiskey-bottle-trail,33.74645,-111.795382,Rio Verde,0.791623037,3.9,City of Scottsdale,http://www.scottsdaleaz.gov/preserve,,,287,64,2,9,2770,2548,Leashed,Not Allowed
Pass Mountain Trail,7.2,DIFFICULT,https://www.mtbproject.com/trail/5186330/pass-mountain-trail,33.466118,-111.597636,Apache Junction,0.790575916,3,,,,,1141,1139,6,39,2632,1889,Unknown,Unknown
Iron King Trail,4.2,EASY,https://www.mtbproject.com/trail/7001408/iron-king-trail,34.615011,-112.347073,Prescott Valley,0.789528796,3.9,Prescott Mountain Bike Alliance,https://www.mtbproject.com/club/31782/prescott-mountain-bike-alliance,,,217,87,1,3,5195,4999,Leashed,Unknown
Warpaint Loop,1.6,EASY/INTERMEDIATE,https://www.mtbproject.com/trail/5371207/warpaint-loop,33.333931,-112.022862,Guadalupe,0.788481675,3.7,City of Phoenix - Trails and Desert Preserves,http://phoenix.gov/recreation/rec/parks/preserves/index.html,,,95,103,2,4,1476,1383,Unknown,Allowed
Blevins,3.1,EASY/INTERMEDIATE,https://www.mtbproject.com/trail/4365245/blevins,33.46602,-111.607625,Apache Junction,0.787434555,3.6,Maricopa County Parks,http://www.maricopa.gov/parks/,,,135,137,2,5,1898,1802,Unknown,Allowed
136th St. Express,7,EASY,https://www.mtbproject.com/trail/7009300/136th-st-express,33.742259,-111.788833,Rio Verde,0.786387435,4,City of Scottsdale,http://www.scottsdaleaz.gov/preserve,,,260,59,1,4,2698,2494,Leashed,Not Allowed
Ironwood Trail,4.9,EASY/INTERMEDIATE,https://www.mtbproject.com/trail/7000586/ironwood-trail,32.193862,-111.166382,Tucson Estates,0.785340314,3.9,Sonoran Desert Mountain Bicyclists,https://www.mtbproject.com/club/112648/sonoran-desert-mountain-bicyclists,"Pima County - Natural Resources, Parks and Recreation",http://webcms.pima.gov/government/natural_resources_parks_and_recreation/,353,7,1,6,2775,2428,Unknown,Unknown
Coachwhip Trail,2.6,INTERMEDIATE,https://www.mtbproject.com/trail/3570112/coachwhip-trail,33.655079,-111.775314,Fountain Hills,0.784293194,4,,,,,215,350,4,9,2433,2176,Unknown,Allowed
#297 Smith Ravine Trail,2.9,INTERMEDIATE/DIFFICULT,https://www.mtbproject.com/trail/4575360/297-smith-ravine-trail,34.484414,-112.373241,Prescott,0.783246073,4,Prescott Mountain Bike Alliance,https://www.mtbproject.com/club/31782/prescott-mountain-bike-alliance,USFS - Prescott National Forest Office,http://www.fs.usda.gov/prescott/,1040,156,8,15,6953,6070,Unknown,Unknown
Ramshead,1.1,INTERMEDIATE,https://www.mtbproject.com/trail/4969443/ramshead,34.830194,-111.803126,West Sedona,0.782198953,4,Verde Valley Cyclists Coalition,https://www.mtbproject.com/club/4920204/verde-valley-cyclists-coalition,USFS - Coconino National Forest Office,http://www.fs.usda.gov/coconino,84,76,3,6,4092,4043,Unknown,Unknown
Moon Rock,1.5,EASY/INTERMEDIATE,https://www.mtbproject.com/trail/4210312/moon-rock,33.463787,-111.615324,Apache Junction,0.781151832,3.9,Maricopa County Parks,http://www.maricopa.gov/parks/,,,28,73,1,3,1871,1798,Unknown,Allowed
Old Post Trail,2.7,INTERMEDIATE/DIFFICULT,https://www.mtbproject.com/trail/4940467/old-post-trail,34.833231,-111.81051,West Sedona,0.780104712,3.6,,,,,461,191,5,10,4430,4029,Unknown,Unknown
Toothaker,4.2,INTERMEDIATE/DIFFICULT,https://www.mtbproject.com/trail/7002869/toothaker,33.373572,-112.373502,Goodyear,0.779057592,3.6,West Valley Trail Alliance,https://www.mtbproject.com/club/7000163/west-valley-trail-alliance,Maricopa County Parks,http://www.maricopa.gov/parks/,371,199,3,12,1347,1028,Unknown,Allowed
Skywalker Trail #669,1.9,INTERMEDIATE,https://www.mtbproject.com/trail/7046428/skywalker-trail-669,34.847727,-111.813636,West Sedona,0.778010471,3.8,,,,,234,229,5,13,4575,4361,Unknown,Unknown
Cliff Walk Trail,2.9,EASY/INTERMEDIATE,https://www.mtbproject.com/trail/7004149/cliff-walk-trail,33.769662,-112.018173,Cave Creek,0.776963351,4,,,,,118,25,1,5,1864,1749,Leashed,Unknown
Bursera Trail,3,DIFFICULT,https://www.mtbproject.com/trail/5824717/bursera-trail,33.306607,-112.098429,Laveen,0.77591623,3.7,City of Phoenix - Trails and Desert Preserves,http://phoenix.gov/recreation/rec/parks/preserves/index.html,,,901,612,10,27,1881,1310,Unknown,Allowed
Upper Brookbank,2.1,INTERMEDIATE/DIFFICULT,https://www.mtbproject.com/trail/914207/upper-brookbank,35.267236,-111.633506,Flagstaff,0.77486911,4,Flagstaff Biking Organization,https://www.mtbproject.com/club/910893/flagstaff-biking-organization,USFS - Coconino National Forest Office,http://www.fs.usda.gov/coconino,499,190,6,22,8691,8325,Unknown,Unknown
Butterfield,2.6,INTERMEDIATE,https://www.mtbproject.com/trail/7002877/butterfield,33.369146,-112.373646,Goodyear,0.77382199,4,Maricopa County Parks,http://www.maricopa.gov/parks/,,,318,132,3,10,1310,995,Unknown,Allowed
Thumper,2.1,INTERMEDIATE/DIFFICULT,https://www.mtbproject.com/trail/3616402/thumper,34.78737,-111.999776,Cottonwood,0.772774869,4,Arizona State Parks,http://azstateparks.com/index.html,,,98,350,4,11,3878,3556,Unknown,Unknown
Maverick Trail,1.5,INTERMEDIATE,https://www.mtbproject.com/trail/7023672/maverick-trail,33.775494,-111.837621,Carefree,0.771727749,3.8,,,,,78,27,1,4,2797,2737,Leashed,Unknown
Rainbow Valley,4.4,INTERMEDIATE,https://www.mtbproject.com/trail/7002871/rainbow-valley,33.370609,-112.373142,Goodyear,0.770680628,3.9,West Valley Trail Alliance,https://www.mtbproject.com/club/7000163/west-valley-trail-alliance,Maricopa County Parks,http://www.maricopa.gov/parks/,620,449,5,15,1358,1026,Unknown,Allowed
Middlegate Trail,2.5,INTERMEDIATE/DIFFICULT,https://www.mtbproject.com/trail/4744021/middlegate-trail,32.494152,-110.867413,Catalina,0.769633508,3.5,Sonoran Desert Mountain Bicyclists,https://www.mtbproject.com/club/112648/sonoran-desert-mountain-bicyclists,AZ State Land Department,http://www.azland.gov/,281,341,5,15,3503,3187,Unknown,Unknown
Goat Trail,0.3,DIFFICULT,https://www.mtbproject.com/trail/3637887/goat-trail,33.319294,-112.047907,Guadalupe,0.768586387,3.9,City of Phoenix - Trails and Desert Preserves,http://phoenix.gov/recreation/rec/parks/preserves/index.html,,,7,191,11,19,1773,1589,Unknown,Allowed
Bittersweet,2,INTERMEDIATE/DIFFICULT,https://www.mtbproject.com/trail/6186277/bittersweet,32.165464,-111.031733,Drexel Heights,0.767539267,3.9,Sonoran Desert Mountain Bicyclists,https://www.mtbproject.com/club/112648/sonoran-desert-mountain-bicyclists,"Pima County - Natural Resources, Parks and Recreation",http://webcms.pima.gov/government/natural_resources_parks_and_recreation/,148,100,2,15,2751,2662,Unknown,Unknown
Lime Kiln,2.6,INTERMEDIATE,https://www.mtbproject.com/trail/3616803/lime-kiln,34.766282,-111.988744,Cottonwood,0.766492147,4,Arizona State Parks,http://azstateparks.com/index.html,,,117,295,3,16,3608,3322,Unknown,Unknown
Rock Wren Trail,2,INTERMEDIATE/DIFFICULT,https://www.mtbproject.com/trail/4881415/rock-wren-trail,32.201106,-111.045603,Tucson Estates,0.765445026,3.9,,,,,99,157,2,10,2892,2783,Unknown,Unknown
Lakeshore Trail,1.8,DIFFICULT,https://www.mtbproject.com/trail/7012736/lakeshore-trail,34.598767,-112.410099,Prescott Valley,0.764397906,4,Prescott Mountain Bike Alliance,https://www.mtbproject.com/club/31782/prescott-mountain-bike-alliance,"City of Prescott, AZ - Recreation Services",http://cityofprescott.net/services/parks/,143,137,3,11,5219,5155,Leashed,Unknown
Windgate Pass Trail,3.1,DIFFICULT,https://www.mtbproject.com/trail/7020324/windgate-pass-trail,33.659169,-111.839382,Fountain Hills,0.763350785,4,,,,,902,475,9,29,3014,2174,Leashed,Not Allowed
Black Canyon Trail (BCT) - Bumblebee TH to Treasure Mine Rd,10.7,INTERMEDIATE,https://www.mtbproject.com/trail/4622458/black-canyon-trail-bct-bumblebee-th-to-treasure-mine-rd,34.151277,-112.153181,Black Canyon City,0.762303665,3.9,Black Canyon Trail Coalition,https://www.mtbproject.com/club/4676322/black-canyon-trail-coalition,BLM Arizona - Hassayampa Field Office,http://www.blm.gov/az/st/en/fo/hassayampa_field_office.html,1060,759,3,11,3115,2499,Unknown,Allowed
Circumference Trail,5.7,DIFFICULT,https://www.mtbproject.com/trail/7000364/circumference-trail,33.733482,-112.143605,Anthem,0.761256545,3,City of Phoenix - Trails and Desert Preserves,http://phoenix.gov/recreation/rec/parks/preserves/index.html,,,702,699,5,19,1776,1487,Leashed,Unknown
El Grupo Loop,2.5,INTERMEDIATE,https://www.mtbproject.com/trail/7055973/el-grupo-loop,32.192319,-111.037258,Tucson Estates,0.760209424,4,"Pima County - Natural Resources, Parks and Recreation",http://webcms.pima.gov/government/natural_resources_parks_and_recreation/,,,208,208,3,11,2711,2506,Unknown,Not Allowed
Maus,3.4,INTERMEDIATE,https://www.mtbproject.com/trail/7017448/maus,32.517789,-111.012797,Catalina,0.759162304,4,,,,,247,261,3,13,3739,3528,Unknown,Unknown
Lower Miller Canyon Trail,2,INTERMEDIATE/DIFFICULT,https://www.mtbproject.com/trail/7006085/lower-miller-canyon-trail,31.416381,-110.275792,Sierra Vista Southeast,0.758115183,4,,,,,2,636,6,14,5713,5077,Unknown,Unknown
Outside Loop (Purple),5.4,INTERMEDIATE,https://www.mtbproject.com/trail/7033193/outside-loop-purple,34.610767,-112.465705,Prescott,0.757068063,4,,,,,288,279,2,7,5443,5256,Leashed,Unknown
High Point,4.2,INTERMEDIATE,https://www.mtbproject.com/trail/7024404/high-point,32.710504,-110.895297,Oracle,0.756020942,4,,,,,299,336,3,9,4112,3804,Unknown,Unknown
Bridge Trail,0.9,INTERMEDIATE/DIFFICULT,https://www.mtbproject.com/trail/7017288/bridge-trail,35.137253,-111.696316,Kachina Village,0.754973822,4,Coconino County and the City of Flagstaff,http://www.flagstaff.az.gov/index.aspx?NID=1379,,,45,43,2,5,7066,7046,Unknown,Unknown
Power Rd Trail,1.6,INTERMEDIATE,https://www.mtbproject.com/trail/547484/power-rd-trail,33.480947,-111.683209,Fountain Hills,0.753926702,4,USFS - Tonto National Forest Office,http://www.fs.usda.gov/tonto/,,,18,83,1,4,1581,1503,Unknown,Unknown
Gateway Trail,1.5,EASY/INTERMEDIATE,https://www.mtbproject.com/trail/7012329/gateway-trail,33.811201,-111.979096,Cave Creek,0.752879581,4,,,,,34,102,2,6,1960,1862,Unknown,Unknown
Skunk Canyon Connector,1.4,INTERMEDIATE/DIFFICULT,https://www.mtbproject.com/trail/7038081/skunk-canyon-connector,35.15182,-111.625618,Flagstaff,0.751832461,4,USFS - Coconino National Forest Office,http://www.fs.usda.gov/coconino,,,0,189,3,8,6881,6692,Off-leash,Unknown
Taliesin Trail,2.3,INTERMEDIATE,https://www.mtbproject.com/trail/4037271/taliesin-trail,33.623249,-111.828727,Fountain Hills,0.75078534,4,Maricopa County Parks,http://www.maricopa.gov/parks/,,,3,428,4,6,1968,1543,Unknown,Not Allowed
Caliche Flats Trail,2.4,EASY/INTERMEDIATE,https://www.mtbproject.com/trail/7010590/caliche-flats-trail,32.1978,-111.134509,Tucson Estates,0.74973822,4,"Pima County - Natural Resources, Parks and Recreation",http://webcms.pima.gov/government/natural_resources_parks_and_recreation/,,,5,117,1,3,2543,2429,Unknown,Unknown
50 Year Trail Segment,3.8,INTERMEDIATE,https://www.mtbproject.com/trail/4742230/50-year-trail-segment,32.417829,-110.93838,Catalina,0.748691099,3.5,Sonoran Desert Mountain Bicyclists,https://www.mtbproject.com/club/112648/sonoran-desert-mountain-bicyclists,AZ State Land Department,http://www.azland.gov/,394,57,2,13,3537,3196,Unknown,Unknown
Cat Peaks,1.1,INTERMEDIATE,https://www.mtbproject.com/trail/4365689/cat-peaks,33.458451,-111.594573,Apache Junction,0.747643979,3.8,Maricopa County Parks,http://www.maricopa.gov/parks/,,,136,105,4,7,1927,1797,Unknown,Allowed
Black Rock Loop,1.8,INTERMEDIATE,https://www.mtbproject.com/trail/4730005/black-rock-loop,32.280073,-111.093169,Flowing Wells,0.746596859,3.8,Sonoran Desert Mountain Bicyclists,https://www.mtbproject.com/club/112648/sonoran-desert-mountain-bicyclists,"Pima County - Natural Resources, Parks and Recreation",http://webcms.pima.gov/government/natural_resources_parks_and_recreation/,88,85,2,4,2582,2522,Unknown,Unknown
Corona de Loma,1.6,DIFFICULT,https://www.mtbproject.com/trail/7001972/corona-de-loma,33.342231,-112.045087,Guadalupe,0.745549738,3.5,City of Phoenix - Trails and Desert Preserves,http://phoenix.gov/recreation/rec/parks/preserves/index.html,,,120,843,11,25,2354,1631,Leashed,Allowed
Campbell Mesa Loop Trail,4.8,EASY/INTERMEDIATE,https://www.mtbproject.com/trail/921204/campbell-mesa-loop-trail,35.20114,-111.560913,Flagstaff,0.744502618,3.9,Flagstaff Biking Organization,https://www.mtbproject.com/club/910893/flagstaff-biking-organization,USFS - Coconino National Forest Office,http://www.fs.usda.gov/coconino,263,236,2,6,6833,6699,Unknown,Unknown
Brewer Trail #212,0.8,DIFFICULT,https://www.mtbproject.com/trail/7046427/brewer-trail-212,34.855777,-111.779976,Sedona,0.743455497,4,,,,,1,323,8,20,4597,4275,Unknown,Unknown
Mt Bigelow,0.9,INTERMEDIATE,https://www.mtbproject.com/trail/683924/mt-bigelow,32.416054,-110.713909,Tanque Verde,0.742408377,4,Sonoran Desert Mountain Bicyclists,https://www.mtbproject.com/club/112648/sonoran-desert-mountain-bicyclists,USFS - Coronado National Forest Office,http://www.fs.usda.gov/coronado,0,541,12,20,8499,7958,Unknown,Unknown
Snake Trail,0.5,INTERMEDIATE,https://www.mtbproject.com/trail/4942984/snake-trail,34.889067,-111.828287,West Sedona,0.741361257,3.9,Verde Valley Cyclists Coalition,https://www.mtbproject.com/club/4920204/verde-valley-cyclists-coalition,USFS - Coconino National Forest Office,http://www.fs.usda.gov/coconino,0,109,4,6,4541,4432,Unknown,Unknown
AZT: Segment 9 - Apache Trail to Roosevelt,82.1,INTERMEDIATE/DIFFICULT,https://www.mtbproject.com/trail/7025881/azt-segment-9-apache-trail-to-roosevelt,33.272133,-111.176631,Superior,0.740314136,4,,,,,5603,5771,3,14,2987,1672,Unknown,Unknown
The Divide Trail,2,EASY,https://www.mtbproject.com/trail/7012589/the-divide-trail,33.790732,-111.817705,Carefree,0.739267016,3.9,City of Scottsdale,http://www.scottsdaleaz.gov/preserve,,,39,61,1,3,2972,2933,Unknown,Unknown
Champagne,4.1,INTERMEDIATE,https://www.mtbproject.com/trail/7003800/champagne,32.804287,-114.478389,Fortuna Foothills,0.738219895,4,Desert Mountain Bikers of Yuma,https://www.mtbproject.com/club/7000176/desert-mountain-bikers-of-yuma,BLM Arizona - Yuma Field Office,http://www.blm.gov/az/st/en/prog/recreation/hiking/betty_kitch.html,499,211,3,10,682,216,Unknown,Unknown
Stagecoach Trail,2.4,EASY,https://www.mtbproject.com/trail/7009192/stagecoach-trail,33.791083,-111.826482,Carefree,0.737172775,4,City of Scottsdale,http://www.scottsdaleaz.gov/preserve,,,34,107,1,6,2902,2825,Leashed,Unknown
AZT: Segment 12 - Flagstaff to South Kaibab,107.2,EASY/INTERMEDIATE,https://www.mtbproject.com/trail/7025884/azt-segment-12-flagstaff-to-south-kaibab,35.21888,-111.632356,Flagstaff,0.736125654,4,,,,,6300,6238,2,28,9016,6131,Unknown,Unknown
Andrews-Kinsey Trail,2.5,INTERMEDIATE,https://www.mtbproject.com/trail/7020350/andrews-kinsey-trail,33.622964,-111.778601,Fountain Hills,0.735078534,4,,,,,467,349,6,21,2952,2665,Unknown,Not Allowed
Surprise Spring Trail #350,1.4,INTERMEDIATE,https://www.mtbproject.com/trail/7006904/surprise-spring-trail-350,34.600534,-112.545296,Williamson,0.734031414,4,Prescott Mountain Bike Alliance,https://www.mtbproject.com/club/31782/prescott-mountain-bike-alliance,USFS - Prescott National Forest Office,http://www.fs.usda.gov/prescott/,0,279,4,9,5896,5617,Unknown,Unknown
Upper Raptor,2.6,INTERMEDIATE,https://www.mtbproject.com/trail/3615549/upper-raptor,34.787473,-111.999857,Cottonwood,0.732984293,4,USFS - Coconino National Forest Office,http://www.fs.usda.gov/coconino,,,440,8,3,26,4300,3866,Unknown,Unknown
Long Loop,9.7,INTERMEDIATE/DIFFICULT,https://www.mtbproject.com/trail/7022551/long-loop,33.667027,-111.69902,Avondale,0.731937173,3.4,Maricopa County Parks,http://www.maricopa.gov/parks/,,,790,774,3,16,1441,1010,No Dogs,Allowed
Badger Mountain Trail #329,7,INTERMEDIATE,https://www.mtbproject.com/trail/7033056/badger-mountain-trail-329,34.523709,-112.42255,Prescott,0.730890052,4,Prescott Mountain Bike Alliance,https://www.mtbproject.com/club/31782/prescott-mountain-bike-alliance,"City of Prescott, AZ - Recreation Services",http://cityofprescott.net/services/parks/,339,1094,4,18,6311,5519,Leashed,Unknown
AZT: Segment 5 - Redington Pass and the Mighty Catalinas,46.9,INTERMEDIATE/DIFFICULT,https://www.mtbproject.com/trail/7025877/azt-segment-5-redington-pass-and-the-mighty-catalinas,32.250107,-110.70374,Tanque Verde,0.729842932,4,,,,,8615,3469,5,27,8178,2752,Unknown,Unknown
Copper Mountain Loop,8.7,INTERMEDIATE,https://www.mtbproject.com/trail/7036283/copper-mountain-loop,34.399425,-112.155526,Spring Valley,0.728795812,3.8,,,,,525,707,3,12,4412,3954,Unknown,Unknown
Pemberton Trail,15.7,INTERMEDIATE,https://www.mtbproject.com/trail/7051456/pemberton-trail,33.690156,-111.718316,Rio Verde,0.727748691,4,,,,,770,768,2,8,2476,1826,Unknown,Unknown
Mule Deer Trail,3.5,INTERMEDIATE,https://www.mtbproject.com/trail/7026150/mule-deer-trail,33.564381,-112.504629,Citrus Park,0.726701571,3.8,,,,,194,208,2,6,1514,1379,Unknown,Allowed
Trail 316 - Pine Lakes Trail,1.6,INTERMEDIATE,https://www.mtbproject.com/trail/7002321/trail-316-pine-lakes-trail,34.552583,-112.521787,Prescott,0.72565445,4,Prescott Mountain Bike Alliance,https://www.mtbproject.com/club/31782/prescott-mountain-bike-alliance,USFS - Prescott National Forest Office,http://www.fs.usda.gov/prescott/,159,211,4,12,5801,5599,Leashed,Unknown
Twist & Shout Trail #372,0.6,EASY/INTERMEDIATE,https://www.mtbproject.com/trail/7012603/twist-shout-trail-372,34.511267,-112.47149,Prescott,0.72460733,4,USFS - Prescott National Forest Office,http://www.fs.usda.gov/prescott/,,,14,55,2,5,5733,5679,Leashed,Unknown
Pat Mullen Spur,0.6,INTERMEDIATE/DIFFICULT,https://www.mtbproject.com/trail/7016113/pat-mullen-spur,34.151508,-109.881494,Pinetop-Lakeside,0.723560209,4,Pinetop-Lakeside TRACKS,https://www.mtbproject.com/club/1027178/pinetop-lakeside-tracks,USFS - Apache & Sitgreaves National Forests Office,http://www.fs.usda.gov/asnf,255,0,9,20,7607,7352,Unknown,Unknown
Tecolote Trail,0.5,DIFFICULT,https://www.mtbproject.com/trail/7055972/tecolote-trail,32.196956,-111.027826,South Tucson,0.722513089,4,,,,,40,39,3,7,2599,2559,Unknown,Not Allowed
Gasline Bypass,2.5,INTERMEDIATE,https://www.mtbproject.com/trail/7022211/gasline-bypass,32.701728,-110.922022,Catalina,0.721465969,4,Sonoran Desert Mountain Bicyclists,https://www.mtbproject.com/club/112648/sonoran-desert-mountain-bicyclists,AZ State Land Department,http://www.azland.gov/,123,197,2,10,3935,3796,Unknown,Unknown
Connector Trail,1.1,EASY/INTERMEDIATE,https://www.mtbproject.com/trail/7043271/connector-trail,33.498905,-111.665234,Fountain Hills,0.720418848,4,USFS - Tonto National Forest Office,http://www.fs.usda.gov/tonto/,,,119,98,4,6,1833,1714,Unknown,Unknown
Mint Wash Connector Trail #352,1.2,DIFFICULT,https://www.mtbproject.com/trail/7012659/mint-wash-connector-trail-352,34.614057,-112.53872,Williamson,0.719371728,4,USFS - Prescott National Forest Office,http://www.fs.usda.gov/prescott/,,,45,351,6,14,5794,5444,Leashed,Unknown
Wild West Trail,0.5,DIFFICULT,https://www.mtbproject.com/trail/7055974/wild-west-trail,32.193581,-111.038605,Tucson Estates,0.718324607,4,,,,,159,141,11,18,2830,2671,Unknown,Not Allowed
Moto Trail (upper),1.8,DIFFICULT,https://www.mtbproject.com/trail/5128831/moto-trail-upper,35.271812,-111.664497,Flagstaff,0.717277487,3.8,Flagstaff Biking Organization,https://www.mtbproject.com/club/910893/flagstaff-biking-organization,USFS - Coconino National Forest Office,http://www.fs.usda.gov/coconino,620,0,7,16,8366,7746,Unknown,Allowed
Arizona Trail (Highway 89 to Schultz Pass),6.3,INTERMEDIATE,https://www.mtbproject.com/trail/954069/arizona-trail-highway-89-to-schultz-pass,35.250204,-111.561847,Flagstaff,0.716230366,3.8,USFS - Coconino National Forest Office,http://www.fs.usda.gov/coconino,,,1398,283,5,12,8018,6903,Unknown,Unknown
Arizona Trail (Snowbowl Road to Schultz Pass),6.8,INTERMEDIATE,https://www.mtbproject.com/trail/835610/arizona-trail-snowbowl-road-to-schultz-pass,35.283414,-111.710689,Flagstaff,0.715183246,3.7,USFS - Coconino National Forest Office,http://www.fs.usda.gov/coconino,,,598,188,2,8,8101,7576,Unknown,Unknown
Beverly Canyon Trail,1.7,INTERMEDIATE,https://www.mtbproject.com/trail/7002010/beverly-canyon-trail,33.374209,-111.985196,Guadalupe,0.714136126,3.5,City of Phoenix - Trails and Desert Preserves,http://phoenix.gov/recreation/rec/parks/preserves/index.html,,,317,158,5,22,1543,1250,Unknown,Allowed
Centennial Training Track,0.6,EASY/INTERMEDIATE,https://www.mtbproject.com/trail/7044630/centennial-training-track,32.692634,-114.654217,Yuma,0.713089005,4,,,,,12,11,1,2,125,119,Leashed,Not Allowed
Eliot Ramada Loop - around the golf course,2,EASY/INTERMEDIATE,https://www.mtbproject.com/trail/358755/eliot-ramada-loop-around-the-golf-course,33.464109,-111.955624,Tempe Junction,0.712041885,3.6,City of Phoenix - Trails and Desert Preserves,http://phoenix.gov/recreation/rec/parks/preserves/index.html,,,29,95,1,2,1301,1206,Unknown,Unknown
Willy Nilly Tractor,1.9,INTERMEDIATE,https://www.mtbproject.com/trail/7041329/willy-nilly-tractor,34.571307,-112.53421,Prescott,0.710994764,4,Prescott Mountain Bike Alliance,https://www.mtbproject.com/club/31782/prescott-mountain-bike-alliance,USFS - Prescott National Forest Office,http://www.fs.usda.gov/prescott/,259,140,4,13,5780,5553,Leashed,Unknown
Christmas Tree Loop,1.4,INTERMEDIATE,https://www.mtbproject.com/trail/6535290/christmas-tree-loop,32.155258,-110.777869,Tanque Verde,0.709947644,3.6,,,,,57,56,2,4,2872,2819,Unknown,Unknown
Garden Party Trail #324,0.8,INTERMEDIATE,https://www.mtbproject.com/trail/7007140/garden-party-trail-324,34.544807,-112.536546,Prescott,0.708900524,4,Prescott Mountain Bike Alliance,https://www.mtbproject.com/club/31782/prescott-mountain-bike-alliance,USFS - Prescott National Forest Office,http://www.fs.usda.gov/prescott/,174,17,4,9,6036,5879,Unknown,Unknown
Tom's Thumb Trail,4.7,VERY DIFFICULT,https://www.mtbproject.com/trail/7020323/toms-thumb-trail,33.693855,-111.802218,Rio Verde,0.707853403,3.7,,,,,1124,1401,10,53,3775,2444,Unknown,Not Allowed
Wild Burro,2.7,INTERMEDIATE/DIFFICULT,https://www.mtbproject.com/trail/5507136/wild-burro,32.498281,-111.064046,Tortolita,0.706806283,4,"Pima County - Natural Resources, Parks and Recreation",http://webcms.pima.gov/government/natural_resources_parks_and_recreation/,,,387,44,3,13,3879,3521,Unknown,Unknown
Tunnel Vision,1.5,INTERMEDIATE,https://www.mtbproject.com/trail/7041140/tunnel-vision,34.566735,-112.551386,Prescott,0.705759162,4,Prescott Mountain Bike Alliance,https://www.mtbproject.com/club/31782/prescott-mountain-bike-alliance,USFS - Prescott National Forest Office,http://www.fs.usda.gov/prescott/,64,127,2,7,5848,5759,Leashed,Unknown
Chain Fruit Trail,1,EASY/INTERMEDIATE,https://www.mtbproject.com/trail/7044912/chain-fruit-trail,33.465001,-111.615342,Apache Junction,0.704712042,4,,,,,92,0,2,6,1976,1884,Leashed,Allowed
Dawa Trail,1.7,INTERMEDIATE/DIFFICULT,https://www.mtbproject.com/trail/4943173/dawa-trail,34.895772,-111.836866,West Sedona,0.703664921,3.5,Verde Valley Cyclists Coalition,https://www.mtbproject.com/club/4920204/verde-valley-cyclists-coalition,USFS - Coconino National Forest Office,http://www.fs.usda.gov/coconino,83,153,3,7,4506,4384,Unknown,Unknown
Clark Springs Trail #40,2.1,DIFFICULT,https://www.mtbproject.com/trail/7012621/clark-springs-trail-40,34.600483,-112.574509,Williamson,0.702617801,4,USFS - Prescott National Forest Office,http://www.fs.usda.gov/prescott/,,,1,784,7,19,6410,5627,Leashed,Unknown
Golden Gate Trail,2.6,INTERMEDIATE/DIFFICULT,https://www.mtbproject.com/trail/7000583/golden-gate-trail,32.201692,-111.12222,Tucson Estates,0.701570681,3.5,Sonoran Desert Mountain Bicyclists,https://www.mtbproject.com/club/112648/sonoran-desert-mountain-bicyclists,"Pima County - Natural Resources, Parks and Recreation",http://webcms.pima.gov/government/natural_resources_parks_and_recreation/,619,43,5,21,3194,2607,Unknown,Unknown
Locomotive Rock,2.6,INTERMEDIATE,https://www.mtbproject.com/trail/7024494/locomotive-rock,32.337107,-112.885712,Ajo,0.70052356,4,BLM Arizona - Hassayampa Field Office,http://www.blm.gov/az/st/en/fo/hassayampa_field_office.html,,,95,181,2,7,1957,1855,Leashed,Unknown
Clark Spring Trail #124,2.3,DIFFICULT,https://www.mtbproject.com/trail/7005943/clark-spring-trail-124,31.435943,-110.274498,Sierra Vista Southeast,0.69947644,4,Dawn to Dust,https://www.mtbproject.com/club/4939736/dawn-to-dust,USFS - Coronado National Forest Office,http://www.fs.usda.gov/coronado,131,394,4,15,6120,5730,Unknown,Unknown
#322 Circle Connection Trail,0.7,EASY,https://www.mtbproject.com/trail/7000574/322-circle-connection-trail,34.527654,-112.530599,Prescott,0.698429319,4,Prescott Mountain Bike Alliance,https://www.mtbproject.com/club/31782/prescott-mountain-bike-alliance,USFS - Prescott National Forest Office,http://www.fs.usda.gov/prescott/,126,4,3,7,6227,6104,Unknown,Unknown
Westside,4.8,INTERMEDIATE/DIFFICULT,https://www.mtbproject.com/trail/7011807/westside,32.782516,-114.478308,Yuma,0.697382199,4,Desert Mountain Bikers of Yuma,https://www.mtbproject.com/club/7000176/desert-mountain-bikers-of-yuma,BLM Arizona - Yuma Field Office,http://www.blm.gov/az/st/en/prog/recreation/hiking/betty_kitch.html,499,353,3,12,491,192,Unknown,Unknown
Roller Coaster Trail,0.3,EASY/INTERMEDIATE,https://www.mtbproject.com/trail/7056335/roller-coaster-trail,32.278904,-111.082353,Flowing Wells,0.696335079,4,Pima County Parks and Recreation,http://webcms.pima.gov/cms/One.aspx?portalId=169&pageId=41889,,,18,5,1,4,2491,2475,Leashed,Unknown
Wildlife Corridor Trail,1.7,INTERMEDIATE,https://www.mtbproject.com/trail/4854563/wildlife-corridor-trail,32.608527,-110.732891,Oracle,0.695287958,4,,,,,34,307,4,14,4358,4085,Unknown,Unknown
Wagner,1.1,EASY,https://www.mtbproject.com/trail/7013388/wagner,33.694177,-111.73091,Rio Verde,0.694240838,4,Maricopa County Parks,http://www.maricopa.gov/parks/,,,119,2,2,3,2096,1976,Unknown,Allowed
FS 6275,3.2,INTERMEDIATE,https://www.mtbproject.com/trail/7040840/fs-6275,35.257466,-111.66465,Flagstaff,0.693193717,4,,,,,1157,2,7,15,8622,7465,Unknown,Unknown
Mariposa Trail,1.6,INTERMEDIATE,https://www.mtbproject.com/trail/4854005/mariposa-trail,32.621118,-110.746644,Oracle,0.692146597,4,,,,,210,144,4,12,4389,4268,Unknown,Unknown
Tortoise,0.7,EASY/INTERMEDIATE,https://www.mtbproject.com/trail/7013386/tortoise,33.689842,-111.71916,Rio Verde,0.691099476,4,Maricopa County Parks,http://www.maricopa.gov/parks/,,,88,1,2,4,1963,1875,Unknown,Allowed
Rough Rider Trail,0.5,EASY,https://www.mtbproject.com/trail/7052384/rough-rider-trail,33.689692,-111.994215,Cave Creek,0.690052356,4,,,,,31,0,1,3,1644,1613,Unknown,Unknown
Starr Pass Trail,4.9,INTERMEDIATE/DIFFICULT,https://www.mtbproject.com/trail/4881896/starr-pass-trail,32.205196,-111.084276,Tucson Estates,0.689005236,3.7,,,,,266,372,2,9,2865,2683,Unknown,Unknown
Twisted Sister,2,INTERMEDIATE/DIFFICULT,https://www.mtbproject.com/trail/7020359/twisted-sister,33.512927,-111.663851,Fountain Hills,0.687958115,3.7,,,,,155,415,5,15,1825,1436,Leashed,Unknown
BCT: Table Mesa to Black Canyon City,12.5,DIFFICULT,https://www.mtbproject.com/trail/7045259/bct-table-mesa-to-black-canyon-city,33.984761,-112.168911,New River,0.686910995,4,,,,,1356,1223,4,11,2495,1751,Unknown,Allowed
Dreamy Draw Nature Trail,0.9,EASY,https://www.mtbproject.com/trail/7053086/dreamy-draw-nature-trail,33.563266,-112.028495,Paradise Valley,0.685863874,4,City of Phoenix - Trails and Desert Preserves,http://phoenix.gov/recreation/rec/parks/preserves/index.html,,,80,77,3,7,1500,1420,Leashed,Unknown
Overton Trail,1.8,INTERMEDIATE,https://www.mtbproject.com/trail/845918/overton-trail,33.84367,-112.004591,Cave Creek,0.684816754,3.7,,,,,62,391,5,11,2445,2057,Unknown,Allowed
Camaro Loop,2.1,INTERMEDIATE,https://www.mtbproject.com/trail/6186964/camaro-loop,32.168825,-111.02779,Drexel Heights,0.683769634,3.7,Sonoran Desert Mountain Bicyclists,https://www.mtbproject.com/club/112648/sonoran-desert-mountain-bicyclists,"Pima County - Natural Resources, Parks and Recreation",http://webcms.pima.gov/government/natural_resources_parks_and_recreation/,109,106,2,6,2637,2552,Unknown,Not Allowed
Williams Peak Trail #738,1.1,INTERMEDIATE,https://www.mtbproject.com/trail/7050680/williams-peak-trail-738,34.545976,-112.545978,Prescott,0.682722513,4,,,,,189,3,3,8,6215,6029,Unknown,Unknown
Maricopa Trail (Bronco - Sonoran),3.4,EASY,https://www.mtbproject.com/trail/7052639/maricopa-trail-bronco-sonoran,33.848527,-111.826113,Carefree,0.681675393,4,,,,,20,365,2,6,3234,2883,Unknown,Unknown
West Wetlands Path,1.1,EASY,https://www.mtbproject.com/trail/7037872/west-wetlands-path,32.730918,-114.635666,Yuma,0.680628272,4,Desert Mountain Bikers of Yuma,https://www.mtbproject.com/club/7000176/desert-mountain-bikers-of-yuma,City of Yuma,http://www.yumaaz.gov/parks-and-recreation/west-wetlands-park--centennial-beach.html,17,11,0,2,133,120,Leashed,Unknown
Forces of Nature,1.8,INTERMEDIATE/DIFFICULT,https://www.mtbproject.com/trail/5185612/forces-of-nature,35.226057,-111.593692,Flagstaff,0.679581152,3.8,Flagstaff Biking Organization,https://www.mtbproject.com/club/910893/flagstaff-biking-organization,Coconino County and the City of Flagstaff,http://www.flagstaff.az.gov/index.aspx?NID=1379,276,137,4,14,7172,6977,Unknown,Unknown
Quartz Trail,2.9,INTERMEDIATE,https://www.mtbproject.com/trail/4037195/quartz-trail,33.837425,-111.986247,Fountain Hills,0.678534031,3.8,Maricopa County Parks,http://www.maricopa.gov/parks/,,,476,22,3,14,1991,1517,Unknown,Not Allowed
Skyline Crest,1.4,INTERMEDIATE,https://www.mtbproject.com/trail/7037241/skyline-crest,33.493114,-112.559076,Buckeye,0.677486911,4,,,,,116,503,9,40,2114,1611,Unknown,Allowed
Maricopa Trail: Apache Peak Run - New River,3,DIFFICULT,https://www.mtbproject.com/trail/7026819/maricopa-trail-apache-peak-run-new-river,33.864185,-112.057492,Anthem,0.676439791,4,,,,,336,258,4,21,2252,2046,Off-leash,Unknown
Friendly Fair Trail,3.1,INTERMEDIATE,https://www.mtbproject.com/trail/7015372/friendly-fair-trail,34.444568,-114.264626,Lake Havasu City,0.67539267,4,BLM Lake Havasu Field Office,http://www.blm.gov/az/st/en/fo/lake_havasu_field.html,,,174,172,2,9,962,861,Off-leash,Unknown
Glassford Summit Trail,2.2,INTERMEDIATE,https://www.mtbproject.com/trail/7039401/glassford-summit-trail,34.596756,-112.360324,Prescott Valley,0.67434555,4,,,,,936,0,8,27,6124,5187,Leashed,Unknown
Gooseneck Trail,6.8,EASY/INTERMEDIATE,https://www.mtbproject.com/trail/7002022/gooseneck-trail,33.74509,-111.79487,Rio Verde,0.673298429,3.6,City of Scottsdale,http://www.scottsdaleaz.gov/preserve,,,352,279,2,7,2635,2506,Leashed,Not Allowed
Sawmill Connector #636A,4.5,INTERMEDIATE,https://www.mtbproject.com/trail/7036763/sawmill-connector-636a,34.22872,-109.949102,Show Low,0.672251309,4,Pinetop-Lakeside TRACKS,https://www.mtbproject.com/club/1027178/pinetop-lakeside-tracks,USFS - Apache & Sitgreaves National Forests Office,http://www.fs.usda.gov/asnf,349,249,2,12,6925,6799,Unknown,Unknown
Radar Loop,1.6,EASY,https://www.mtbproject.com/trail/5788429/radar-loop,35.1436,-111.67764,Kachina Village,0.671204188,4,,,,,94,94,2,8,7022,6983,Unknown,Unknown
Butte Creek Trail #321,1.9,DIFFICULT,https://www.mtbproject.com/trail/7011406/butte-creek-trail-321,34.528164,-112.527877,Prescott,0.670157068,4,,,,,4,451,5,14,6093,5646,Unknown,Unknown
Hidden Valley Trail #374,0.4,INTERMEDIATE,https://www.mtbproject.com/trail/7012608/hidden-valley-trail-374,34.50738,-112.469307,Prescott,0.669109948,4,USFS - Prescott National Forest Office,http://www.fs.usda.gov/prescott/,,,0,134,6,14,5814,5679,Leashed,Unknown
Scorpion,2.3,INTERMEDIATE,https://www.mtbproject.com/trail/7057299/scorpion,34.846156,-111.828575,Apache Junction,0.668062827,4,,,,,1,417,3,7,1871,1456,Leashed,Unknown
Alpe d'Huez,1.2,INTERMEDIATE,https://www.mtbproject.com/trail/7057006/alpe-dhuez,33.505661,-111.624172,Apache Junction,0.667015707,4,Hawes Trail Alliance,https://www.mtbproject.com/club/7000810/hawes-trail-alliance,,,491,4,8,21,2632,2145,Unknown,Unknown
Moss Wash OHV Trail Route 7200,5.8,DIFFICULT,https://www.mtbproject.com/trail/7014851/moss-wash-ohv-trail-route-7200,35.030355,-113.883004,Kingman,0.665968586,4,Colorado River Area Trail Alliance,https://www.mtbproject.com/club/4044379/colorado-river-area-trail-alliance,BLM Arizona - Kingman Field Office,http://www.blm.gov/az/st/en/fo/kingman_field_office.html,61,1303,4,16,5666,4424,Unknown,Allowed
Dry Lakes Vista,0.9,EASY,https://www.mtbproject.com/trail/743662/dry-lakes-vista,35.268519,-111.634395,Flagstaff,0.664921466,4,USFS - Coconino National Forest Office,http://www.fs.usda.gov/coconino,,,45,11,1,3,8351,8309,Unknown,Unknown
Lance's Trail,1.4,INTERMEDIATE,https://www.mtbproject.com/trail/7057298/lances-trail,33.50492,-111.618046,Apache Junction,0.663874346,4,,,,,83,224,4,9,2105,1896,Leashed,Unknown
Phone Trail,0.3,INTERMEDIATE,https://www.mtbproject.com/trail/4923508/phone-trail,34.805628,-111.766331,Village of Oak Creek (Big Park),0.662827225,4,Verde Valley Cyclists Coalition,https://www.mtbproject.com/club/4920204/verde-valley-cyclists-coalition,USFS - Coconino National Forest Office,http://www.fs.usda.gov/coconino,1,10,1,1,4329,4320,Unknown,Unknown
W Naranja Drive Multi Purpose Path,1.5,INTERMEDIATE,https://www.mtbproject.com/trail/7046310/w-naranja-drive-multi-purpose-path,32.409851,-110.996016,Tortolita,0.661780105,4,,,,,13,42,1,2,2716,2685,Unknown,Unknown
Tucson Estates Trail,1.3,EASY,https://www.mtbproject.com/trail/7056453/tucson-estates-trail,32.192623,-111.10376,Tucson Estates,0.660732984,4,,,,,222,1,3,5,2862,2642,Unknown,Not Allowed
Trail 328 - Piglet Trail,0.6,INTERMEDIATE,https://www.mtbproject.com/trail/7012503/trail-328-piglet-trail,34.559996,-112.51681,Prescott,0.659685864,4,Prescott Mountain Bike Alliance,https://www.mtbproject.com/club/31782/prescott-mountain-bike-alliance,USFS - Prescott National Forest Office,http://www.fs.usda.gov/prescott/,5,178,6,9,5814,5641,Leashed,Unknown
Palisade Trail,1.2,INTERMEDIATE,https://www.mtbproject.com/trail/7000494/palisade-trail,33.734811,-112.14789,Anthem,0.658638743,4,City of Phoenix - Trails and Desert Preserves,http://phoenix.gov/recreation/rec/parks/preserves/index.html,,,277,174,7,21,1868,1591,Leashed,Unknown
Osprey Connector #636C,2.5,INTERMEDIATE,https://www.mtbproject.com/trail/7036764/osprey-connector-636c,34.186834,-109.962927,Lake of the Woods,0.657591623,4,Pinetop-Lakeside TRACKS,https://www.mtbproject.com/club/1027178/pinetop-lakeside-tracks,USFS - Apache & Sitgreaves National Forests Office,http://www.fs.usda.gov/asnf,114,201,2,14,6935,6751,Unknown,Unknown
Bail Trail,0.3,EASY/INTERMEDIATE,https://www.mtbproject.com/trail/4923646/bail-trail,34.815887,-111.761021,Village of Oak Creek (Big Park),0.656544503,3.8,,,,,0,102,6,8,4398,4296,Unknown,Unknown
Front Yard,1.4,INTERMEDIATE,https://www.mtbproject.com/trail/7003804/front-yard,32.758828,-114.496158,Yuma,0.655497382,4,,,,,139,6,2,5,329,192,Unknown,Unknown
Legacy Trail,1.2,INTERMEDIATE,https://www.mtbproject.com/trail/7011275/legacy-trail,34.61819,-112.464277,Prescott,0.654450262,4,,,,,182,120,5,14,5361,5275,Unknown,Unknown
Cactus Wren Trail,1.5,INTERMEDIATE,https://www.mtbproject.com/trail/4905153/cactus-wren-trail,33.732929,-112.066134,Cave Creek,0.653403141,3.8,Cave Creek Bicycle Association,https://www.mtbproject.com/club/31765/cave-creek-bicycle-association,City of Phoenix - Trails and Desert Preserves,http://phoenix.gov/recreation/rec/parks/preserves/index.html,57,89,2,5,1790,1724,Unknown,Unknown
Tatanka,2,INTERMEDIATE,https://www.mtbproject.com/trail/7041313/tatanka,34.567446,-112.552159,Prescott,0.652356021,4,Prescott Mountain Bike Alliance,https://www.mtbproject.com/club/31782/prescott-mountain-bike-alliance,USFS - Prescott National Forest Office,http://www.fs.usda.gov/prescott/,74,206,3,8,5865,5706,Leashed,Unknown
Harv's Howl,0.4,INTERMEDIATE/DIFFICULT,https://www.mtbproject.com/trail/7032906/harvs-howl,33.318281,-112.448772,Buckeye,0.651308901,3.8,,,,,79,3,4,13,1128,1050,Unknown,Unknown
BLM Trail,1.1,INTERMEDIATE,https://www.mtbproject.com/trail/7035222/blm-trail,34.579487,-112.549536,Prescott,0.65026178,4,Prescott Mountain Bike Alliance,https://www.mtbproject.com/club/31782/prescott-mountain-bike-alliance,USFS - Prescott National Forest Office,http://www.fs.usda.gov/prescott/,2,284,5,10,5936,5654,Leashed,Unknown
Bowen Trail,0.8,DIFFICULT,https://www.mtbproject.com/trail/7056938/bowen-trail,32.218177,-111.06471,Tucson Estates,0.64921466,4,Pima County Parks and Recreation,http://webcms.pima.gov/cms/One.aspx?portalId=169&pageId=41889,,,56,80,3,7,2822,2742,Unknown,Not Allowed
Zygomatic,0.8,INTERMEDIATE,https://www.mtbproject.com/trail/7041315/zygomatic,34.559597,-112.547919,Prescott,0.648167539,4,Prescott Mountain Bike Alliance,https://www.mtbproject.com/club/31782/prescott-mountain-bike-alliance,USFS - Prescott National Forest Office,http://www.fs.usda.gov/prescott/,1,201,5,14,5918,5718,Leashed,Unknown
Coyote Canyon Trail,1.3,INTERMEDIATE,https://www.mtbproject.com/trail/7023668/coyote-canyon-trail,33.794301,-111.7969,Carefree,0.647120419,4,,,,,119,24,2,7,2835,2725,Leashed,Unknown
Mariposa Trail,0.5,EASY,https://www.mtbproject.com/trail/7000602/mariposa-trail,32.621118,-110.746644,Tucson Estates,0.646073298,4,Sonoran Desert Mountain Bicyclists,https://www.mtbproject.com/club/112648/sonoran-desert-mountain-bicyclists,"Pima County - Natural Resources, Parks and Recreation",http://webcms.pima.gov/government/natural_resources_parks_and_recreation/,17,15,1,2,2599,2582,Unknown,Unknown
Unnamed Trail,1.7,EASY/INTERMEDIATE,https://www.mtbproject.com/trail/7024553/unnamed-trail,31.858509,-111.014728,Green Valley,0.645026178,4,,,,,141,32,2,5,3161,3051,Unknown,Unknown
Solifuge Connector,0.5,INTERMEDIATE/DIFFICULT,https://www.mtbproject.com/trail/7057121/solifuge-connector,32.388204,-112.92027,Ajo,0.643979058,4,BLM - Lower Sonoran Field Office,https://www.blm.gov/office/lower-sonoran-field-office,,,26,35,2,4,1772,1744,Unknown,Unknown
Cunningham Trail,3.9,EASY,https://www.mtbproject.com/trail/3964075/cunningham-trail,32.668227,-109.880291,Swift Trail Junction,0.642931937,4,,,,,175,395,3,9,9202,8883,Unknown,Unknown
36th Street Trail Alternate,0.8,INTERMEDIATE,https://www.mtbproject.com/trail/7056721/36th-street-trail-alternate,32.192288,-111.03521,Tucson Estates,0.641884817,4,"Pima County - Natural Resources, Parks and Recreation",http://webcms.pima.gov/government/natural_resources_parks_and_recreation/,,,51,18,2,8,2630,2586,Unknown,Not Allowed
Kerr Jar Trail,0.9,INTERMEDIATE,https://www.mtbproject.com/trail/7000599/kerr-jar-trail,32.210722,-111.129308,Tucson Estates,0.640837696,4,Sonoran Desert Mountain Bicyclists,https://www.mtbproject.com/club/112648/sonoran-desert-mountain-bicyclists,"Pima County - Natural Resources, Parks and Recreation",http://webcms.pima.gov/government/natural_resources_parks_and_recreation/,39,19,1,6,2643,2605,Unknown,Unknown
Coatimundi Trail,1.1,EASY/INTERMEDIATE,https://www.mtbproject.com/trail/7056493/coatimundi-trail,32.212432,-111.150419,Tucson Estates,0.639790576,4,,,,,106,0,2,4,2658,2553,Unknown,Not Allowed
Powerline Trail,0.2,EASY,https://www.mtbproject.com/trail/7050954/powerline-trail,34.535587,-112.460836,Prescott,0.638743455,4,,,,,59,0,5,10,5559,5499,Unknown,Unknown
D Road (8112 D Road),0.9,INTERMEDIATE,https://www.mtbproject.com/trail/7057119/d-road-8112-d-road,32.385245,-112.89059,Ajo,0.637696335,4,BLM - Lower Sonoran Field Office,https://www.blm.gov/office/lower-sonoran-field-office,,,10,139,3,10,1824,1693,Unknown,Unknown
West Butte Trail,1.5,INTERMEDIATE,https://www.mtbproject.com/trail/7013032/west-butte-trail,32.802195,-111.701014,Casa Grande,0.636649215,4,Casa Grande Parks & Recreation,http://www.casagrandeaz.gov/rec/parks/,,,129,251,5,12,1749,1510,Unknown,Unknown
Barb's Trail,0.7,EASY,https://www.mtbproject.com/trail/7056896/barbs-trail,33.801311,-111.787881,Carefree,0.635602094,4,City of Scottsdale,http://www.scottsdaleaz.gov/preserve,,,62,4,2,4,2753,2691,Leashed,Not Allowed
Desperado Trail,0.5,INTERMEDIATE,https://www.mtbproject.com/trail/7023667/desperado-trail,33.799803,-111.803422,Carefree,0.634554974,4,,,,,15,23,1,3,2828,2811,Leashed,Unknown
Pile,0.2,DIFFICULT,https://www.mtbproject.com/trail/7039494/pile,33.959037,-109.559781,Eagar,0.633507853,4,,,,,0,171,19,27,10134,9963,No Dogs,Unknown
East Butte Connector,0.8,EASY,https://www.mtbproject.com/trail/7013035/east-butte-connector,32.797242,-111.696576,Casa Grande,0.632460733,4,Casa Grande Parks & Recreation,http://www.casagrandeaz.gov/rec/parks/,,,24,9,1,2,1626,1609,Unknown,Unknown
Saguaro Rib,0.2,EASY,https://www.mtbproject.com/trail/7056455/saguaro-rib,32.19761,-111.060362,Tucson Estates,0.631413613,4,,,,,1,16,1,2,2735,2719,Unknown,Not Allowed
Roadrunner,1.5,INTERMEDIATE,https://www.mtbproject.com/trail/7057958/roadrunner,32.389114,-112.862392,Ajo,0.630366492,4,Bike Ajo,https://www.mtbproject.com/club/7000569/bike-ajo,BLM - Lower Sonoran Field Office,https://www.blm.gov/office/lower-sonoran-field-office,3,86,1,3,1700,1616,Unknown,Unknown
Batamote View,2.3,INTERMEDIATE/DIFFICULT,https://www.mtbproject.com/trail/7057956/batamote-view,32.435337,-112.781175,Ajo,0.629319372,4,,,,,73,71,1,2,1623,1551,Unknown,Unknown
Ed's Climb,0.2,DIFFICULT,https://www.mtbproject.com/trail/7057871/eds-climb,,,Ajo,0.628272251,4,Bike Ajo,https://www.mtbproject.com/club/7000569/bike-ajo,BLM - Lower Sonoran Field Office,https://www.blm.gov/office/lower-sonoran-field-office,56,3,7,15,1891,1835,Unknown,Unknown
Lagarto SE,0.5,INTERMEDIATE,https://www.mtbproject.com/trail/7057869/lagarto-se,32.302756,-112.874259,Ajo,0.627225131,4,Bike Ajo,https://www.mtbproject.com/club/7000569/bike-ajo,BLM - Lower Sonoran Field Office,https://www.blm.gov/office/lower-sonoran-field-office,3,37,2,3,1813,1778,Unknown,Unknown
Escaping The Vortex,0.6,EASY/INTERMEDIATE,https://www.mtbproject.com/trail/7057806/escaping-the-vortex,32.4037,-112.917126,Ajo,0.62617801,4,Bike Ajo,https://www.mtbproject.com/club/7000569/bike-ajo,BLM - Lower Sonoran Field Office,https://www.blm.gov/office/lower-sonoran-field-office,49,0,2,4,1674,1625,Unknown,Unknown
Lava Run,2.4,EASY/INTERMEDIATE,https://www.mtbproject.com/trail/7057683/lava-run,32.268658,-112.843437,Ajo,0.62513089,4,Bike Ajo,https://www.mtbproject.com/club/7000569/bike-ajo,BLM - Lower Sonoran Field Office,https://www.blm.gov/office/lower-sonoran-field-office,91,8,1,2,1756,1670,Unknown,Unknown
Juan Bautista de Anza Nat'l Historic Trail: Tumacacori - Calab,8.4,EASY/INTERMEDIATE,https://www.mtbproject.com/trail/7057674/juan-bautista-de-anza-natl-historic-trail-tumacacori-calabasas,,,Tubac,0.62408377,4,,,,,191,47,1,4,3415,3271,Unknown,Unknown
Faithful to Mxico,0.9,INTERMEDIATE,https://www.mtbproject.com/trail/7057667/faithful-to-mexico,,,Ajo,0.623036649,4,Bike Ajo,https://www.mtbproject.com/club/7000569/bike-ajo,BLM - Lower Sonoran Field Office,https://www.blm.gov/office/lower-sonoran-field-office,22,103,3,7,2040,1937,Unknown,Unknown
Centruroides,1.2,EASY/INTERMEDIATE,https://www.mtbproject.com/trail/7057666/centruroides,32.328135,-112.922247,Ajo,0.621989529,4,Bike Ajo,https://www.mtbproject.com/club/7000569/bike-ajo,BLM - Lower Sonoran Field Office,https://www.blm.gov/office/lower-sonoran-field-office,69,63,2,5,1937,1868,Unknown,Unknown
Pequeo Ajo Loop,1.5,DIFFICULT,https://www.mtbproject.com/trail/7057652/pequeno-ajo-loop,,,Ajo,0.620942408,4,,,,,272,272,7,17,1954,1769,Unknown,Unknown
Fattire Mike,0.8,INTERMEDIATE,https://www.mtbproject.com/trail/7057625/fattire-mike,32.431857,-112.795189,Ajo,0.619895288,4,,,,,22,3,1,2,1535,1516,Unknown,Unknown
Noah's Cutoff,2.6,INTERMEDIATE,https://www.mtbproject.com/trail/7057624/noahs-cutoff,32.426299,-112.809131,Ajo,0.618848168,4,Bike Ajo,https://www.mtbproject.com/club/7000569/bike-ajo,BLM - Lower Sonoran Field Office,https://www.blm.gov/office/lower-sonoran-field-office,70,15,1,2,1561,1500,Unknown,Unknown
Matt's Loop: West,2.8,INTERMEDIATE,https://www.mtbproject.com/trail/7057594/matts-loop-west,32.318662,-112.922651,Ajo,0.617801047,4,Bike Ajo,https://www.mtbproject.com/club/7000569/bike-ajo,BLM - Lower Sonoran Field Office,https://www.blm.gov/office/lower-sonoran-field-office,0,133,1,1,1849,1717,Unknown,Unknown
Pinnacle,0.6,DIFFICULT,https://www.mtbproject.com/trail/7057589/pinnacle,,,Ajo,0.616753927,4,,,,,44,126,6,13,2125,2001,Unknown,Unknown
Batamote Basin,7,INTERMEDIATE/DIFFICULT,https://www.mtbproject.com/trail/7057587/batamote-basin,32.453198,-112.822848,Ajo,0.615706806,4,Bike Ajo,https://www.mtbproject.com/club/7000569/bike-ajo,BLM - Lower Sonoran Field Office,https://www.blm.gov/office/lower-sonoran-field-office,248,82,1,4,1674,1448,Unknown,Unknown
